[
  {
    "Listing_ID": 135762202,
    "Price": 860000,
    "Suburb": "Crawley",
    "Address": "7/131 Fairway",
    "Property_Type": "house",
    "Bedrooms": 3,
    "Bathrooms": 2,
    "Parking_Spaces": 2,
    "Land_Size": 232,
    "Longitude": 115.8151726,
    "Latitude": -31.98549762,
    "Distance_to_CBD": 5315,
    "Year": 2021,
    "Primary_School_Name": "NEDLANDS PRIMARY SCHOOL",
    "Secondary_School_Name": "SHENTON COLLEGE"
  },
  {
    "Listing_ID": 141405184,
    "Price": 865000,
    "Suburb": "Noranda",
    "Address": "19 Stewart Way",
    "Property_Type": "house",
    "Bedrooms": 5,
    "Bathrooms": 3,
    "Parking_Spaces": 4,
    "Land_Size": 713,
    "Longitude": 115.899,
    "Latitude": -31.87889,
    "Distance_to_CBD": 9177,
    "Year": 2023,
    "Primary_School_Name": "CAMBOON PRIMARY SCHOOL",
    "Secondary_School_Name": "MORLEY SENIOR HIGH SCHOOL"
  },
  {
    "Listing_ID": 139396319,
    "Price": 4100000,
    "Suburb": "Applecross",
    "Address": "5 Dunkley Avenue",
    "Property_Type": "house",
    "Bedrooms": 4,
    "Bathrooms": 2,
    "Parking_Spaces": 6,
    "Land_Size": 956,
    "Longitude": 115.82618,
    "Latitude": -32.02402,
    "Distance_to_CBD": 8345,
    "Year": 2022,
    "Primary_School_Name": "ARDROSS PRIMARY SCHOOL",
    "Secondary_School_Name": "APPLECROSS SENIOR HIGH SCHOOL"
  },
  {
    "Listing_ID": 140382055,
    "Price": 610000,
    "Suburb": "Parkwood",
    "Address": "20 Merley Way",
    "Property_Type": "house",
    "Bedrooms": 4,
    "Bathrooms": 1,
    "Parking_Spaces": 4,
    "Land_Size": 688,
    "Longitude": 115.91899,
    "Latitude": -32.04295,
    "Distance_to_CBD": 11516,
    "Year": 2022,
    "Primary_School_Name": "PARKWOOD PRIMARY SCHOOL",
    "Secondary_School_Name": "LYNWOOD SENIOR HIGH SCHOOL"
  },
  {
    "Listing_ID": 142824688,
    "Price": 627500,
    "Suburb": "Rivervale",
    "Address": "154 Knutsford Avenue",
    "Property_Type": "house",
    "Bedrooms": 3,
    "Bathrooms": 1,
    "Parking_Spaces": 0,
    "Land_Size": 720,
    "Longitude": 115.92713,
    "Latitude": -31.96354,
    "Distance_to_CBD": 6718,
    "Year": 2023,
    "Primary_School_Name": "RIVERVALE PRIMARY SCHOOL",
    "Secondary_School_Name": "BELMONT CITY COLLEGE"
  },
  {
    "Listing_ID": 135799938,
    "Price": 517500,
    "Suburb": "Cockburn Central",
    "Address": "18 Ridge Road",
    "Property_Type": "house",
    "Bedrooms": 3,
    "Bathrooms": 2,
    "Parking_Spaces": 2,
    "Land_Size": 209,
    "Longitude": 115.845691,
    "Latitude": -32.12624382,
    "Distance_to_CBD": 19184,
    "Year": 2021,
    "Primary_School_Name": "JANDAKOT PRIMARY SCHOOL",
    "Secondary_School_Name": "EMMANUEL CATHOLIC COLLEGE"
  },
  {
    "Listing_ID": 143800240,
    "Price": 521500,
    "Suburb": "Maddington",
    "Address": "32C Pitchford Avenue",
    "Property_Type": "house",
    "Bedrooms": 3,
    "Bathrooms": 2,
    "Parking_Spaces": 2,
    "Land_Size": 541,
    "Longitude": 115.9985213,
    "Latitude": -32.05836091,
    "Distance_to_CBD": 17716,
    "Year": 2023,
    "Primary_School_Name": "EAST MADDINGTON PRIMARY SCHOOL",
    "Secondary_School_Name": "YULE BROOK COLLEGE"
  },
  {
    "Listing_ID": 128286046,
    "Price": 775000,
    "Suburb": "Osborne Park",
    "Address": "102 Main Street",
    "Property_Type": "house",
    "Bedrooms": 2,
    "Bathrooms": 1,
    "Parking_Spaces": 4,
    "Land_Size": 1012,
    "Longitude": 115.828605,
    "Latitude": -31.904371,
    "Distance_to_CBD": 6077,
    "Year": 2018,
    "Primary_School_Name": "ST KIERAN CATHOLIC PRIMARY SCHOOL",
    "Secondary_School_Name": "SERVITE COLLEGE"
  },
  {
    "Listing_ID": 140982436,
    "Price": 1165000,
    "Suburb": "Manning",
    "Address": "36 Conochie Crescent",
    "Property_Type": "house",
    "Bedrooms": 4,
    "Bathrooms": 2,
    "Parking_Spaces": 2,
    "Land_Size": 435,
    "Longitude": 115.8716,
    "Latitude": -32.01539,
    "Distance_to_CBD": 6998,
    "Year": 2023,
    "Primary_School_Name": "MANNING PRIMARY SCHOOL",
    "Secondary_School_Name": "COMO SECONDARY COLLEGE"
  },
  {
    "Listing_ID": 133318234,
    "Price": 1335000,
    "Suburb": "Churchlands",
    "Address": "5B Valencia Avenue",
    "Property_Type": "house",
    "Bedrooms": 4,
    "Bathrooms": 3,
    "Parking_Spaces": 2,
    "Land_Size": 425,
    "Longitude": 115.7854843,
    "Latitude": -31.91649557,
    "Distance_to_CBD": 7915,
    "Year": 2020,
    "Primary_School_Name": "HALE SCHOOL",
    "Secondary_School_Name": "HALE SCHOOL"
  },
  {
    "Listing_ID": 143827620,
    "Price": 590000,
    "Suburb": "Cloverdale",
    "Address": "22 Pontiac Avenue",
    "Property_Type": "house",
    "Bedrooms": 2,
    "Bathrooms": 1,
    "Parking_Spaces": 3,
    "Land_Size": 784,
    "Longitude": 115.94269,
    "Latitude": -31.96704,
    "Distance_to_CBD": 8234,
    "Year": 2024,
    "Primary_School_Name": "KEWDALE PRIMARY SCHOOL",
    "Secondary_School_Name": "BELMONT CITY COLLEGE"
  },
  {
    "Listing_ID": 143760680,
    "Price": 795000,
    "Suburb": "Como",
    "Address": "283 Canning Highway",
    "Property_Type": "house",
    "Bedrooms": 4,
    "Bathrooms": 1,
    "Parking_Spaces": 2,
    "Land_Size": 454,
    "Longitude": 115.8686426,
    "Latitude": -31.99095993,
    "Distance_to_CBD": 4295,
    "Year": 2023,
    "Primary_School_Name": "COLLIER PRIMARY SCHOOL",
    "Secondary_School_Name": "PENRHOS COLLEGE"
  },
  {
    "Listing_ID": 143635408,
    "Price": 657000,
    "Suburb": "Mount Lawley",
    "Address": "8/591 Beaufort Street",
    "Property_Type": "apartment",
    "Bedrooms": 2,
    "Bathrooms": 2,
    "Parking_Spaces": 1,
    "Land_Size": 128,
    "Longitude": 115.8707097,
    "Latitude": -31.93609547,
    "Distance_to_CBD": 2323,
    "Year": 2023,
    "Primary_School_Name": "SACRED HEART PRIMARY SCHOOL",
    "Secondary_School_Name": "PERTH COLLEGE"
  },
  {
    "Listing_ID": 139449207,
    "Price": 1138888,
    "Suburb": "Manning",
    "Address": "24 Cornish Crescent",
    "Property_Type": "house",
    "Bedrooms": 4,
    "Bathrooms": 2,
    "Parking_Spaces": 2,
    "Land_Size": 579,
    "Longitude": 115.8663104,
    "Latitude": -32.01982013,
    "Distance_to_CBD": 7405,
    "Year": 2022,
    "Primary_School_Name": "ST PIUS X CATHOLIC SCHOOL",
    "Secondary_School_Name": "AQUINAS COLLEGE"
  },
  {
    "Listing_ID": 123363146,
    "Price": 1290000,
    "Suburb": "South Fremantle",
    "Address": "29 King William Street",
    "Property_Type": "house",
    "Bedrooms": 3,
    "Bathrooms": 2,
    "Parking_Spaces": 6,
    "Land_Size": 526,
    "Longitude": 115.754053,
    "Latitude": -32.067503,
    "Distance_to_CBD": 15952,
    "Year": 2016,
    "Primary_School_Name": "BEACONSFIELD PRIMARY SCHOOL",
    "Secondary_School_Name": "FREMANTLE COLLEGE"
  },
  {
    "Listing_ID": 141846700,
    "Price": 390000,
    "Suburb": "East Perth",
    "Address": "12/18 Forrest Avenue",
    "Property_Type": "apartment",
    "Bedrooms": 2,
    "Bathrooms": 1,
    "Parking_Spaces": 1,
    "Land_Size": 88,
    "Longitude": 115.87372,
    "Latitude": -31.95825,
    "Distance_to_CBD": 1661,
    "Year": 2023,
    "Primary_School_Name": "HIGHGATE PRIMARY SCHOOL",
    "Secondary_School_Name": "MERCEDES COLLEGE"
  },
  {
    "Listing_ID": 143516684,
    "Price": 774000,
    "Suburb": "Madeley",
    "Address": "99 Kingsway",
    "Property_Type": "house",
    "Bedrooms": 4,
    "Bathrooms": 2,
    "Parking_Spaces": 2,
    "Land_Size": 465,
    "Longitude": 115.8308411,
    "Latitude": -31.81291872,
    "Distance_to_CBD": 15786,
    "Year": 2023,
    "Primary_School_Name": "MADELEY PRIMARY SCHOOL",
    "Secondary_School_Name": "KINGSWAY CHRISTIAN COLLEGE"
  },
  {
    "Listing_ID": 129992726,
    "Price": 420000,
    "Suburb": "Woodbridge",
    "Address": "34 Harper Street",
    "Property_Type": "house",
    "Bedrooms": 3,
    "Bathrooms": 1,
    "Parking_Spaces": 4,
    "Land_Size": 1012,
    "Longitude": 115.996781,
    "Latitude": -31.887887,
    "Distance_to_CBD": 15086,
    "Year": 2019,
    "Primary_School_Name": "WOODBRIDGE PRIMARY SCHOOL",
    "Secondary_School_Name": "GOVERNOR STIRLING SENIOR HIGH SCHOOL"
  },
  {
    "Listing_ID": 141916784,
    "Price": 551000,
    "Suburb": "Belmont",
    "Address": "6 Collyer Street",
    "Property_Type": "house",
    "Bedrooms": 3,
    "Bathrooms": 1,
    "Parking_Spaces": 2,
    "Land_Size": 369,
    "Longitude": 115.9356113,
    "Latitude": -31.94281202,
    "Distance_to_CBD": 7522,
    "Year": 2023,
    "Primary_School_Name": "ST MARIA GORETTI'S CATHOLIC SCHOOL",
    "Secondary_School_Name": "BELMONT CITY COLLEGE"
  },
  {
    "Listing_ID": 144452992,
    "Price": 1950000,
    "Suburb": "Coolbinia",
    "Address": "19 Armadale Crescent",
    "Property_Type": "house",
    "Bedrooms": 4,
    "Bathrooms": 2,
    "Parking_Spaces": 2,
    "Land_Size": 799,
    "Longitude": 115.84893,
    "Latitude": -31.91348,
    "Distance_to_CBD": 4505,
    "Year": 2024,
    "Primary_School_Name": "ST DENIS SCHOOL",
    "Secondary_School_Name": "ARANMORE CATHOLIC COLLEGE"
  },
  {
    "Listing_ID": 144408144,
    "Price": 470000,
    "Suburb": "Spearwood",
    "Address": "260B  Spearwood Avenue",
    "Property_Type": "villa",
    "Bedrooms": 1,
    "Bathrooms": 1,
    "Parking_Spaces": 2,
    "Land_Size": 173,
    "Longitude": 115.7922157,
    "Latitude": -32.10130595,
    "Distance_to_CBD": 17495,
    "Year": 2024,
    "Primary_School_Name": "SPEARWOOD PRIMARY SCHOOL",
    "Secondary_School_Name": "PORT SCHOOL"
  },
  {
    "Listing_ID": 138239830,
    "Price": 630000,
    "Suburb": "Samson",
    "Address": "12 Sowden Drive",
    "Property_Type": "house",
    "Bedrooms": 3,
    "Bathrooms": 1,
    "Parking_Spaces": 2,
    "Land_Size": 714,
    "Longitude": 115.7956596,
    "Latitude": -32.06936654,
    "Distance_to_CBD": 14095,
    "Year": 2022,
    "Primary_School_Name": "SAMSON PRIMARY SCHOOL",
    "Secondary_School_Name": "SETON CATHOLIC COLLEGE"
  },
  {
    "Listing_ID": 113562267,
    "Price": 408000,
    "Suburb": "Midvale",
    "Address": "32 Park Road",
    "Property_Type": "house",
    "Bedrooms": 4,
    "Bathrooms": 2,
    "Parking_Spaces": 4,
    "Land_Size": 703,
    "Longitude": 116.035252,
    "Latitude": -31.888858,
    "Distance_to_CBD": 18315,
    "Year": 2013,
    "Primary_School_Name": "ST ANTHONY'S SCHOOL",
    "Secondary_School_Name": "SWAN VIEW SENIOR HIGH SCHOOL"
  },
  {
    "Listing_ID": 141112932,
    "Price": 501000,
    "Suburb": "Huntingdale",
    "Address": "19 Fantail Way",
    "Property_Type": "house",
    "Bedrooms": 4,
    "Bathrooms": 2,
    "Parking_Spaces": 2,
    "Land_Size": 602,
    "Longitude": 115.9633,
    "Latitude": -32.08039,
    "Distance_to_CBD": 17283,
    "Year": 2023,
    "Primary_School_Name": "HUNTINGDALE PRIMARY SCHOOL",
    "Secondary_School_Name": "THORNLIE SENIOR HIGH SCHOOL"
  },
  {
    "Listing_ID": 139916803,
    "Price": 640000,
    "Suburb": "Brabham",
    "Address": "14 Gingham Way",
    "Property_Type": "house",
    "Bedrooms": 4,
    "Bathrooms": 2,
    "Parking_Spaces": 2,
    "Land_Size": 411,
    "Longitude": 115.9711321,
    "Latitude": -31.82612539,
    "Distance_to_CBD": 17777,
    "Year": 2022,
    "Primary_School_Name": "RIVERLANDS MONTESSORI SCHOOL",
    "Secondary_School_Name": "SWAN VALLEY ANGLICAN COMMUNITY SCHOOL"
  },
  {
    "Listing_ID": 137976330,
    "Price": 648000,
    "Suburb": "Madeley",
    "Address": "26 Otunic Way",
    "Property_Type": "house",
    "Bedrooms": 4,
    "Bathrooms": 2,
    "Parking_Spaces": 2,
    "Land_Size": 451,
    "Longitude": 115.830441,
    "Latitude": -31.80455,
    "Distance_to_CBD": 16708,
    "Year": 2022,
    "Primary_School_Name": "MADELEY PRIMARY SCHOOL",
    "Secondary_School_Name": "KINGSWAY CHRISTIAN COLLEGE"
  },
  {
    "Listing_ID": 144770796,
    "Price": 782000,
    "Suburb": "Bassendean",
    "Address": "21 Clarke Way",
    "Property_Type": "house",
    "Bedrooms": 4,
    "Bathrooms": 1,
    "Parking_Spaces": 2,
    "Land_Size": 890,
    "Longitude": 115.95017,
    "Latitude": -31.9124,
    "Distance_to_CBD": 9916,
    "Year": 2024,
    "Primary_School_Name": "BASSENDEAN PRIMARY SCHOOL",
    "Secondary_School_Name": "CYRIL JACKSON SENIOR CAMPUS"
  },
  {
    "Listing_ID": 139107923,
    "Price": 425000,
    "Suburb": "South Guildford",
    "Address": "29 Wundu Entrance",
    "Property_Type": "house",
    "Bedrooms": 3,
    "Bathrooms": 1,
    "Parking_Spaces": 1,
    "Land_Size": 501,
    "Longitude": 115.98394,
    "Latitude": -31.91508,
    "Distance_to_CBD": 12733,
    "Year": 2022,
    "Primary_School_Name": "GUILDFORD PRIMARY SCHOOL",
    "Secondary_School_Name": "GUILDFORD GRAMMAR SCHOOL"
  },
  {
    "Listing_ID": 142672712,
    "Price": 470000,
    "Suburb": "Highgate",
    "Address": "1/288 Lord St",
    "Property_Type": "apartment",
    "Bedrooms": 2,
    "Bathrooms": 2,
    "Parking_Spaces": 1,
    "Land_Size": 138,
    "Longitude": 115.8739214,
    "Latitude": -31.9436718,
    "Distance_to_CBD": 1933,
    "Year": 2023,
    "Primary_School_Name": "HIGHGATE PRIMARY SCHOOL",
    "Secondary_School_Name": "PERTH COLLEGE"
  },
  {
    "Listing_ID": 144277808,
    "Price": 735000,
    "Suburb": "South Lake",
    "Address": "21 Semple Court",
    "Property_Type": "house",
    "Bedrooms": 4,
    "Bathrooms": 2,
    "Parking_Spaces": 2,
    "Land_Size": 496,
    "Longitude": 115.8458736,
    "Latitude": -32.1133727,
    "Distance_to_CBD": 17758,
    "Year": 2024,
    "Primary_School_Name": "SOUTH LAKE PRIMARY SCHOOL",
    "Secondary_School_Name": "LAKELAND SENIOR HIGH SCHOOL"
  },
  {
    "Listing_ID": 143496688,
    "Price": 905000,
    "Suburb": "Subiaco",
    "Address": "4/197 Roberts Road",
    "Property_Type": "townhouse",
    "Bedrooms": 3,
    "Bathrooms": 2,
    "Parking_Spaces": 2,
    "Land_Size": 180,
    "Longitude": 115.83191,
    "Latitude": -31.94572,
    "Distance_to_CBD": 2529,
    "Year": 2023,
    "Primary_School_Name": "WEST LEEDERVILLE PRIMARY SCHOOL",
    "Secondary_School_Name": "PERTH MODERN SCHOOL"
  },
  {
    "Listing_ID": 137790170,
    "Price": 500000,
    "Suburb": "Hazelmere",
    "Address": "3/141 Bushmead Road",
    "Property_Type": "unit",
    "Bedrooms": 3,
    "Bathrooms": 2,
    "Parking_Spaces": 2,
    "Land_Size": 461,
    "Longitude": 115.9932687,
    "Latitude": -31.90023241,
    "Distance_to_CBD": 14172,
    "Year": 2022,
    "Primary_School_Name": "WOODBRIDGE PRIMARY SCHOOL",
    "Secondary_School_Name": "GOVERNOR STIRLING SENIOR HIGH SCHOOL"
  },
  {
    "Listing_ID": 132847110,
    "Price": 955000,
    "Suburb": "Gwelup",
    "Address": "26 Willow Bank Entrance",
    "Property_Type": "house",
    "Bedrooms": 4,
    "Bathrooms": 2,
    "Parking_Spaces": 2,
    "Land_Size": 440,
    "Longitude": 115.79379,
    "Latitude": -31.86802,
    "Distance_to_CBD": 11210,
    "Year": 2020,
    "Primary_School_Name": "LAKE GWELUP PRIMARY SCHOOL",
    "Secondary_School_Name": "BALCATTA SENIOR HIGH SCHOOL"
  },
  {
    "Listing_ID": 141824272,
    "Price": 640000,
    "Suburb": "Hilton",
    "Address": "16 Collick Street",
    "Property_Type": "house",
    "Bedrooms": 3,
    "Bathrooms": 1,
    "Parking_Spaces": 2,
    "Land_Size": 761,
    "Longitude": 115.79065,
    "Latitude": -32.0654,
    "Distance_to_CBD": 13903,
    "Year": 2023,
    "Primary_School_Name": "HILTON PRIMARY SCHOOL",
    "Secondary_School_Name": "SETON CATHOLIC COLLEGE"
  },
  {
    "Listing_ID": 138800695,
    "Price": 3175000,
    "Suburb": "Mosman Park",
    "Address": "36 Downey Drive",
    "Property_Type": "house",
    "Bedrooms": 5,
    "Bathrooms": 4,
    "Parking_Spaces": 2,
    "Land_Size": 740,
    "Longitude": 115.77533,
    "Latitude": -32.02174,
    "Distance_to_CBD": 10811,
    "Year": 2022,
    "Primary_School_Name": "IONA PRESENTATION COLLEGE",
    "Secondary_School_Name": "IONA PRESENTATION COLLEGE"
  },
  {
    "Listing_ID": 139461927,
    "Price": 685000,
    "Suburb": "Bicton",
    "Address": "37 Foss Street",
    "Property_Type": "house",
    "Bedrooms": 3,
    "Bathrooms": 2,
    "Parking_Spaces": 2,
    "Land_Size": 246,
    "Longitude": 115.7856529,
    "Latitude": -32.03461569,
    "Distance_to_CBD": 11243,
    "Year": 2022,
    "Primary_School_Name": "BICTON PRIMARY SCHOOL",
    "Secondary_School_Name": "SANTA MARIA COLLEGE"
  },
  {
    "Listing_ID": 138825743,
    "Price": 419000,
    "Suburb": "Huntingdale",
    "Address": "16 Baxter Close",
    "Property_Type": "house",
    "Bedrooms": 4,
    "Bathrooms": 2,
    "Parking_Spaces": 2,
    "Land_Size": 613,
    "Longitude": 115.96809,
    "Latitude": -32.08676,
    "Distance_to_CBD": 18121,
    "Year": 2022,
    "Primary_School_Name": "HUNTINGDALE PRIMARY SCHOOL",
    "Secondary_School_Name": "SOUTHERN RIVER COLLEGE"
  },
  {
    "Listing_ID": 139935259,
    "Price": 731000,
    "Suburb": "Innaloo",
    "Address": "42A Marian Street",
    "Property_Type": "house",
    "Bedrooms": 3,
    "Bathrooms": 2,
    "Parking_Spaces": 2,
    "Land_Size": 282,
    "Longitude": 115.7933,
    "Latitude": -31.89491,
    "Distance_to_CBD": 8864,
    "Year": 2022,
    "Primary_School_Name": "ST DOMINIC'S SCHOOL",
    "Secondary_School_Name": "INTERNATIONAL SCHOOL OF WESTERN AUSTRALIA"
  },
  {
    "Listing_ID": 144248204,
    "Price": 970000,
    "Suburb": "Dianella",
    "Address": "18 Bauhinia Ridge",
    "Property_Type": "house",
    "Bedrooms": 4,
    "Bathrooms": 2,
    "Parking_Spaces": 2,
    "Land_Size": 704,
    "Longitude": 115.85739,
    "Latitude": -31.8777,
    "Distance_to_CBD": 8407,
    "Year": 2024,
    "Primary_School_Name": "DIANELLA PRIMARY COLLEGE",
    "Secondary_School_Name": "DIANELLA SECONDARY COLLEGE"
  },
  {
    "Listing_ID": 141202436,
    "Price": 563000,
    "Suburb": "Padbury",
    "Address": "221 Gibson Avenue",
    "Property_Type": "house",
    "Bedrooms": 3,
    "Bathrooms": 1,
    "Parking_Spaces": 2,
    "Land_Size": 739,
    "Longitude": 115.77136,
    "Latitude": -31.79759,
    "Distance_to_CBD": 19096,
    "Year": 2023,
    "Primary_School_Name": "BAMBARA PRIMARY SCHOOL",
    "Secondary_School_Name": "ST STEPHEN'S SCHOOL"
  },
  {
    "Listing_ID": 139790507,
    "Price": 1685000,
    "Suburb": "Wembley Downs",
    "Address": "115B Calais Road",
    "Property_Type": "house",
    "Bedrooms": 4,
    "Bathrooms": 2,
    "Parking_Spaces": 2,
    "Land_Size": 439,
    "Longitude": 115.7680563,
    "Latitude": -31.90962541,
    "Distance_to_CBD": 9721,
    "Year": 2022,
    "Primary_School_Name": "WEMBLEY DOWNS PRIMARY SCHOOL",
    "Secondary_School_Name": "INTERNATIONAL SCHOOL OF WESTERN AUSTRALIA"
  },
  {
    "Listing_ID": 141547408,
    "Price": 379000,
    "Suburb": "West Perth",
    "Address": "15/48 Havelock Street",
    "Property_Type": "apartment",
    "Bedrooms": 1,
    "Bathrooms": 1,
    "Parking_Spaces": 1,
    "Land_Size": 77,
    "Longitude": 115.8443932,
    "Latitude": -31.95018707,
    "Distance_to_CBD": 1252,
    "Year": 2023,
    "Primary_School_Name": "WEST LEEDERVILLE PRIMARY SCHOOL",
    "Secondary_School_Name": "PERTH MODERN SCHOOL"
  },
  {
    "Listing_ID": 142914680,
    "Price": 805000,
    "Suburb": "Woodvale",
    "Address": "73 Cosimo Drive",
    "Property_Type": "house",
    "Bedrooms": 4,
    "Bathrooms": 2,
    "Parking_Spaces": 2,
    "Land_Size": 334,
    "Longitude": 115.8100246,
    "Latitude": -31.79103472,
    "Distance_to_CBD": 18558,
    "Year": 2023,
    "Primary_School_Name": "ST LUKE'S CATHOLIC PRIMARY SCHOOL",
    "Secondary_School_Name": "ALTA-1"
  },
  {
    "Listing_ID": 139176891,
    "Price": 632000,
    "Suburb": "Darch",
    "Address": "2 Morris Street",
    "Property_Type": "house",
    "Bedrooms": 4,
    "Bathrooms": 2,
    "Parking_Spaces": 2,
    "Land_Size": 566,
    "Longitude": 115.8400453,
    "Latitude": -31.8201958,
    "Distance_to_CBD": 14870,
    "Year": 2022,
    "Primary_School_Name": "RAWLINSON PRIMARY SCHOOL",
    "Secondary_School_Name": "ASHDALE SECONDARY COLLEGE"
  },
  {
    "Listing_ID": 139580095,
    "Price": 1500000,
    "Suburb": "North Perth",
    "Address": "5 Campsie Street",
    "Property_Type": "house",
    "Bedrooms": 3,
    "Bathrooms": 2,
    "Parking_Spaces": 2,
    "Land_Size": 275,
    "Longitude": 115.84847,
    "Latitude": -31.93277,
    "Distance_to_CBD": 2439,
    "Year": 2022,
    "Primary_School_Name": "NORTH PERTH PRIMARY SCHOOL",
    "Secondary_School_Name": "SCHOOL OF ISOLATED AND DISTANCE EDUCATION"
  },
  {
    "Listing_ID": 139429983,
    "Price": 610000,
    "Suburb": "Wilson",
    "Address": "77 Wendouree Road",
    "Property_Type": "house",
    "Bedrooms": 4,
    "Bathrooms": 2,
    "Parking_Spaces": 1,
    "Land_Size": 374,
    "Longitude": 115.9071774,
    "Latitude": -32.02156944,
    "Distance_to_CBD": 8910,
    "Year": 2022,
    "Primary_School_Name": "WILSON PRIMARY SCHOOL",
    "Secondary_School_Name": "CLONTARF ABORIGINAL COLLEGE"
  },
  {
    "Listing_ID": 143973500,
    "Price": 390000,
    "Suburb": "Wembley",
    "Address": "9/304 Cambridge Street",
    "Property_Type": "apartment",
    "Bedrooms": 1,
    "Bathrooms": 1,
    "Parking_Spaces": 1,
    "Land_Size": 70,
    "Longitude": 115.8142945,
    "Latitude": -31.94048101,
    "Distance_to_CBD": 4293,
    "Year": 2024,
    "Primary_School_Name": "WEMBLEY PRIMARY SCHOOL",
    "Secondary_School_Name": "TELETHON SPEECH & HEARING"
  },
  {
    "Listing_ID": 140321315,
    "Price": 750000,
    "Suburb": "Melville",
    "Address": "86 Rome Road",
    "Property_Type": "house",
    "Bedrooms": 3,
    "Bathrooms": 2,
    "Parking_Spaces": 2,
    "Land_Size": 479,
    "Longitude": 115.8089089,
    "Latitude": -32.043975,
    "Distance_to_CBD": 11014,
    "Year": 2022,
    "Primary_School_Name": "MELVILLE PRIMARY SCHOOL",
    "Secondary_School_Name": "MELVILLE SENIOR HIGH SCHOOL"
  },
  {
    "Listing_ID": 144422688,
    "Price": 418000,
    "Suburb": "Cockburn Central",
    "Address": "8/1 Kentucky Court",
    "Property_Type": "apartment",
    "Bedrooms": 2,
    "Bathrooms": 1,
    "Parking_Spaces": 1,
    "Land_Size": 92,
    "Longitude": 115.854085,
    "Latitude": -32.12277494,
    "Distance_to_CBD": 18771,
    "Year": 2024,
    "Primary_School_Name": "JANDAKOT PRIMARY SCHOOL",
    "Secondary_School_Name": "HAVENPORT MSL COLLEGE"
  },
  {
    "Listing_ID": 143108684,
    "Price": 2250000,
    "Suburb": "Como",
    "Address": "107 Robert Street",
    "Property_Type": "house",
    "Bedrooms": 4,
    "Bathrooms": 2,
    "Parking_Spaces": 1,
    "Land_Size": 1012,
    "Longitude": 115.8575,
    "Latitude": -32.007,
    "Distance_to_CBD": 5931,
    "Year": 2023,
    "Primary_School_Name": "COMO PRIMARY SCHOOL",
    "Secondary_School_Name": "COMO SECONDARY COLLEGE"
  },
  {
    "Listing_ID": 142454084,
    "Price": 425000,
    "Suburb": "Midland",
    "Address": "8/82 Great Northern Highway",
    "Property_Type": "townhouse",
    "Bedrooms": 3,
    "Bathrooms": 2,
    "Parking_Spaces": 2,
    "Land_Size": 249,
    "Longitude": 116.008983,
    "Latitude": -31.88123353,
    "Distance_to_CBD": 16454,
    "Year": 2023,
    "Primary_School_Name": "ST BRIGID'S PRIMARY SCHOOL",
    "Secondary_School_Name": "LA SALLE COLLEGE"
  },
  {
    "Listing_ID": 140683147,
    "Price": 370000,
    "Suburb": "Bassendean",
    "Address": "7/10 Ivanhoe Street",
    "Property_Type": "villa",
    "Bedrooms": 3,
    "Bathrooms": 1,
    "Parking_Spaces": 2,
    "Land_Size": 219,
    "Longitude": 115.94686,
    "Latitude": -31.90147,
    "Distance_to_CBD": 10268,
    "Year": 2023,
    "Primary_School_Name": "ST MICHAEL'S SCHOOL",
    "Secondary_School_Name": "CYRIL JACKSON SENIOR CAMPUS"
  },
  {
    "Listing_ID": 143294764,
    "Price": 407000,
    "Suburb": "North Coogee",
    "Address": "51/25 O'Connor Close",
    "Property_Type": "apartment",
    "Bedrooms": 1,
    "Bathrooms": 1,
    "Parking_Spaces": 1,
    "Land_Size": 76,
    "Longitude": 115.7538056,
    "Latitude": -32.07978079,
    "Distance_to_CBD": 17064,
    "Year": 2023,
    "Primary_School_Name": "BEACONSFIELD PRIMARY SCHOOL",
    "Secondary_School_Name": "FREMANTLE COLLEGE"
  },
  {
    "Listing_ID": 142453084,
    "Price": 625000,
    "Suburb": "Kardinya",
    "Address": "15A Gairdner Drive",
    "Property_Type": "house",
    "Bedrooms": 3,
    "Bathrooms": 1,
    "Parking_Spaces": 2,
    "Land_Size": 436,
    "Longitude": 115.80391,
    "Latitude": -32.06457,
    "Distance_to_CBD": 13299,
    "Year": 2023,
    "Primary_School_Name": "SAMSON PRIMARY SCHOOL",
    "Secondary_School_Name": "NORTH LAKE SENIOR CAMPUS"
  },
  {
    "Listing_ID": 133897670,
    "Price": 257000,
    "Suburb": "Stratton",
    "Address": "2 Tatlock Way",
    "Property_Type": "house",
    "Bedrooms": 4,
    "Bathrooms": 2,
    "Parking_Spaces": 3,
    "Land_Size": 479,
    "Longitude": 116.03777,
    "Latitude": -31.87166,
    "Distance_to_CBD": 19353,
    "Year": 2020,
    "Primary_School_Name": "MIDDLE SWAN PRIMARY SCHOOL",
    "Secondary_School_Name": "SWAN VIEW SENIOR HIGH SCHOOL"
  },
  {
    "Listing_ID": 135835222,
    "Price": 790000,
    "Suburb": "Parkwood",
    "Address": "14 Finula Place",
    "Property_Type": "house",
    "Bedrooms": 4,
    "Bathrooms": 2,
    "Parking_Spaces": 2,
    "Land_Size": 716,
    "Longitude": 115.90548,
    "Latitude": -32.05508,
    "Distance_to_CBD": 12157,
    "Year": 2021,
    "Primary_School_Name": "ROSTRATA PRIMARY SCHOOL",
    "Secondary_School_Name": "ONESCHOOL GLOBAL WA"
  },
  {
    "Listing_ID": 141903448,
    "Price": 865000,
    "Suburb": "Piara Waters",
    "Address": "347 Wright Road",
    "Property_Type": "house",
    "Bedrooms": 4,
    "Bathrooms": 2,
    "Parking_Spaces": 2,
    "Land_Size": 637,
    "Longitude": 115.9234788,
    "Latitude": -32.12346466,
    "Distance_to_CBD": 19863,
    "Year": 2023,
    "Primary_School_Name": "PIARA WATERS PRIMARY SCHOOL",
    "Secondary_School_Name": "HARRISDALE SENIOR HIGH SCHOOL"
  },
  {
    "Listing_ID": 133224730,
    "Price": 900000,
    "Suburb": "Lathlain",
    "Address": "19 Cookham Road",
    "Property_Type": "house",
    "Bedrooms": 2,
    "Bathrooms": 1,
    "Parking_Spaces": 10,
    "Land_Size": 1012,
    "Longitude": 115.90217,
    "Latitude": -31.96513,
    "Distance_to_CBD": 4456,
    "Year": 2020,
    "Primary_School_Name": "PERTH INDIVIDUAL",
    "Secondary_School_Name": "PERTH INDIVIDUAL"
  },
  {
    "Listing_ID": 144742172,
    "Price": 950000,
    "Suburb": "East Victoria Park",
    "Address": "48 Hubert Street",
    "Property_Type": "house",
    "Bedrooms": 3,
    "Bathrooms": 1,
    "Parking_Spaces": 2,
    "Land_Size": 338,
    "Longitude": 115.9039182,
    "Latitude": -31.98311067,
    "Distance_to_CBD": 5514,
    "Year": 2024,
    "Primary_School_Name": "EAST VICTORIA PARK PRIMARY SCHOOL",
    "Secondary_School_Name": "URSULA FRAYNE CATHOLIC COLLEGE"
  },
  {
    "Listing_ID": 143876360,
    "Price": 710000,
    "Suburb": "Bennett Springs",
    "Address": "14 Denia Rise",
    "Property_Type": "house",
    "Bedrooms": 4,
    "Bathrooms": 2,
    "Parking_Spaces": 2,
    "Land_Size": 534,
    "Longitude": 115.922434,
    "Latitude": -31.86037084,
    "Distance_to_CBD": 12038,
    "Year": 2024,
    "Primary_School_Name": "WEST BEECHBORO PRIMARY SCHOOL",
    "Secondary_School_Name": "KIARA COLLEGE"
  },
  {
    "Listing_ID": 139527795,
    "Price": 640000,
    "Suburb": "Helena Valley",
    "Address": "8 Golden Ash Gardens",
    "Property_Type": "house",
    "Bedrooms": 4,
    "Bathrooms": 2,
    "Parking_Spaces": 2,
    "Land_Size": 600,
    "Longitude": 116.03086,
    "Latitude": -31.92004,
    "Distance_to_CBD": 16849,
    "Year": 2022,
    "Primary_School_Name": "CLAYTON VIEW PRIMARY SCHOOL",
    "Secondary_School_Name": "SWAN VIEW SENIOR HIGH SCHOOL"
  },
  {
    "Listing_ID": 141004336,
    "Price": 1100000,
    "Suburb": "Kardinya",
    "Address": "26 Saw Road",
    "Property_Type": "house",
    "Bedrooms": 5,
    "Bathrooms": 2,
    "Parking_Spaces": 3,
    "Land_Size": 1004,
    "Longitude": 115.80889,
    "Latitude": -32.06191,
    "Distance_to_CBD": 12852,
    "Year": 2023,
    "Primary_School_Name": "CARALEE COMMUNITY SCHOOL",
    "Secondary_School_Name": "NORTH LAKE SENIOR CAMPUS"
  },
  {
    "Listing_ID": 140762647,
    "Price": 850000,
    "Suburb": "Mount Hawthorn",
    "Address": "4 Sasse Avenue",
    "Property_Type": "house",
    "Bedrooms": 2,
    "Bathrooms": 2,
    "Parking_Spaces": 2,
    "Land_Size": 377,
    "Longitude": 115.82972,
    "Latitude": -31.92466,
    "Distance_to_CBD": 4112,
    "Year": 2023,
    "Primary_School_Name": "BOLD PARK COMMUNITY SCHOOL",
    "Secondary_School_Name": "TELETHON SPEECH & HEARING"
  },
  {
    "Listing_ID": 142495108,
    "Price": 990000,
    "Suburb": "Willagee",
    "Address": "34 Wheyland Street",
    "Property_Type": "house",
    "Bedrooms": 4,
    "Bathrooms": 2,
    "Parking_Spaces": 2,
    "Land_Size": 488,
    "Longitude": 115.8107206,
    "Latitude": -32.05151273,
    "Distance_to_CBD": 11716,
    "Year": 2023,
    "Primary_School_Name": "CARALEE COMMUNITY SCHOOL",
    "Secondary_School_Name": "MELVILLE SENIOR HIGH SCHOOL"
  },
  {
    "Listing_ID": 136539742,
    "Price": 605000,
    "Suburb": "Kensington",
    "Address": "2/44 Gwenyfred Road",
    "Property_Type": "house",
    "Bedrooms": 3,
    "Bathrooms": 2,
    "Parking_Spaces": 2,
    "Land_Size": 237,
    "Longitude": 115.8851061,
    "Latitude": -31.97707438,
    "Distance_to_CBD": 3723,
    "Year": 2021,
    "Primary_School_Name": "KENSINGTON PRIMARY SCHOOL",
    "Secondary_School_Name": "KENT STREET SENIOR HIGH SCHOOL"
  },
  {
    "Listing_ID": 142159316,
    "Price": 217000,
    "Suburb": "Osborne Park",
    "Address": "18/263 Main Street",
    "Property_Type": "unit",
    "Bedrooms": 1,
    "Bathrooms": 1,
    "Parking_Spaces": 1,
    "Land_Size": 91,
    "Longitude": 115.82765,
    "Latitude": -31.89212,
    "Distance_to_CBD": 7353,
    "Year": 2023,
    "Primary_School_Name": "OSBORNE PRIMARY SCHOOL",
    "Secondary_School_Name": "SERVITE COLLEGE"
  },
  {
    "Listing_ID": 136388322,
    "Price": 467000,
    "Suburb": "East Cannington",
    "Address": "67 Renou Street",
    "Property_Type": "house",
    "Bedrooms": 3,
    "Bathrooms": 1,
    "Parking_Spaces": 3,
    "Land_Size": 759,
    "Longitude": 115.94753,
    "Latitude": -32.01309,
    "Distance_to_CBD": 10806,
    "Year": 2021,
    "Primary_School_Name": "GIBBS STREET PRIMARY SCHOOL",
    "Secondary_School_Name": "SEVENOAKS SENIOR COLLEGE"
  },
  {
    "Listing_ID": 135438546,
    "Price": 479155,
    "Suburb": "Maida Vale",
    "Address": "4 Tree Fern Green",
    "Property_Type": "house",
    "Bedrooms": 4,
    "Bathrooms": 2,
    "Parking_Spaces": 4,
    "Land_Size": 582,
    "Longitude": 116.01557,
    "Latitude": -31.95384,
    "Distance_to_CBD": 14987,
    "Year": 2021,
    "Primary_School_Name": "MAIDA VALE PRIMARY SCHOOL",
    "Secondary_School_Name": "DARLING RANGE SPORTS COLLEGE"
  },
  {
    "Listing_ID": 142398320,
    "Price": 1925000,
    "Suburb": "Melville",
    "Address": "5 Bowling Place",
    "Property_Type": "house",
    "Bedrooms": 5,
    "Bathrooms": 3,
    "Parking_Spaces": 3,
    "Land_Size": 788,
    "Longitude": 115.80491,
    "Latitude": -32.03981,
    "Distance_to_CBD": 10763,
    "Year": 2023,
    "Primary_School_Name": "MELVILLE PRIMARY SCHOOL",
    "Secondary_School_Name": "MELVILLE SENIOR HIGH SCHOOL"
  },
  {
    "Listing_ID": 144232328,
    "Price": 1300000,
    "Suburb": "North Coogee",
    "Address": "14 Alpha Way",
    "Property_Type": "house",
    "Bedrooms": 3,
    "Bathrooms": 2,
    "Parking_Spaces": 2,
    "Land_Size": 198,
    "Longitude": 115.7650023,
    "Latitude": -32.0996694,
    "Distance_to_CBD": 18392,
    "Year": 2024,
    "Primary_School_Name": "PHOENIX PRIMARY SCHOOL",
    "Secondary_School_Name": "FREMANTLE CHRISTIAN COLLEGE"
  },
  {
    "Listing_ID": 130339326,
    "Price": 315000,
    "Suburb": "Ashfield",
    "Address": "1 Guildford Road",
    "Property_Type": "house",
    "Bedrooms": 3,
    "Bathrooms": 1,
    "Parking_Spaces": 2,
    "Land_Size": 422,
    "Longitude": 115.932832,
    "Latitude": -31.916154,
    "Distance_to_CBD": 8277,
    "Year": 2019,
    "Primary_School_Name": "ASHFIELD PRIMARY SCHOOL",
    "Secondary_School_Name": "CYRIL JACKSON SENIOR CAMPUS"
  },
  {
    "Listing_ID": 131159174,
    "Price": 370000,
    "Suburb": "Ascot",
    "Address": "2/11 Waterway Crescent",
    "Property_Type": "unit",
    "Bedrooms": 3,
    "Bathrooms": 1,
    "Parking_Spaces": 1,
    "Land_Size": 180,
    "Longitude": 115.916682,
    "Latitude": -31.93682,
    "Distance_to_CBD": 5934,
    "Year": 2019,
    "Primary_School_Name": "BELMONT PRIMARY SCHOOL",
    "Secondary_School_Name": "BELMONT CITY COLLEGE"
  },
  {
    "Listing_ID": 144450028,
    "Price": 450000,
    "Suburb": "Lockridge",
    "Address": "23 Altone Road",
    "Property_Type": "house",
    "Bedrooms": 3,
    "Bathrooms": 1,
    "Parking_Spaces": 2,
    "Land_Size": 342,
    "Longitude": 115.9446196,
    "Latitude": -31.88510404,
    "Distance_to_CBD": 11231,
    "Year": 2024,
    "Primary_School_Name": "GOOD SHEPHERD CATHOLIC SCHOOL",
    "Secondary_School_Name": "KIARA COLLEGE"
  },
  {
    "Listing_ID": 141217020,
    "Price": 315900,
    "Suburb": "Noranda",
    "Address": "8/36 Millerick Way",
    "Property_Type": "villa",
    "Bedrooms": 2,
    "Bathrooms": 1,
    "Parking_Spaces": 1,
    "Land_Size": 165,
    "Longitude": 115.88966,
    "Latitude": -31.8732,
    "Distance_to_CBD": 9424,
    "Year": 2023,
    "Primary_School_Name": "CAMBOON PRIMARY SCHOOL",
    "Secondary_School_Name": "MORLEY SENIOR HIGH SCHOOL"
  },
  {
    "Listing_ID": 138852059,
    "Price": 2050000,
    "Suburb": "City Beach",
    "Address": "40 Tilton Terrace",
    "Property_Type": "house",
    "Bedrooms": 3,
    "Bathrooms": 2,
    "Parking_Spaces": 2,
    "Land_Size": 974,
    "Longitude": 115.76397,
    "Latitude": -31.92288,
    "Distance_to_CBD": 9434,
    "Year": 2022,
    "Primary_School_Name": "KAPINARA PRIMARY SCHOOL",
    "Secondary_School_Name": "HALE SCHOOL"
  },
  {
    "Listing_ID": 137606578,
    "Price": 677000,
    "Suburb": "Bibra Lake",
    "Address": "44 Deller Drive",
    "Property_Type": "house",
    "Bedrooms": 4,
    "Bathrooms": 2,
    "Parking_Spaces": 2,
    "Land_Size": 700,
    "Longitude": 115.80422,
    "Latitude": -32.09196,
    "Distance_to_CBD": 16143,
    "Year": 2021,
    "Primary_School_Name": "COOLBELLUP COMMUNITY SCHOOL",
    "Secondary_School_Name": "PERTH WALDORF SCHOOL"
  },
  {
    "Listing_ID": 136071458,
    "Price": 1160000,
    "Suburb": "Ardross",
    "Address": "1A Salen Court",
    "Property_Type": "house",
    "Bedrooms": 4,
    "Bathrooms": 2,
    "Parking_Spaces": 2,
    "Land_Size": 468,
    "Longitude": 115.8406948,
    "Latitude": -32.03218461,
    "Distance_to_CBD": 8860,
    "Year": 2021,
    "Primary_School_Name": "MOUNT PLEASANT PRIMARY SCHOOL",
    "Secondary_School_Name": "APPLECROSS SENIOR HIGH SCHOOL"
  },
  {
    "Listing_ID": 137647102,
    "Price": 4850000,
    "Suburb": "Cottesloe",
    "Address": "12 Lyons Street",
    "Property_Type": "house",
    "Bedrooms": 4,
    "Bathrooms": 2,
    "Parking_Spaces": 2,
    "Land_Size": 721,
    "Longitude": 115.75888,
    "Latitude": -31.98511,
    "Distance_to_CBD": 9919,
    "Year": 2021,
    "Primary_School_Name": "NORTH COTTESLOE PRIMARY SCHOOL",
    "Secondary_School_Name": "PRESBYTERIAN LADIES COLLEGE"
  },
  {
    "Listing_ID": 143815256,
    "Price": 1320000,
    "Suburb": "Rivervale",
    "Address": "76 Toorak Road",
    "Property_Type": "house",
    "Bedrooms": 4,
    "Bathrooms": 2,
    "Parking_Spaces": 2,
    "Land_Size": 676,
    "Longitude": 115.91593,
    "Latitude": -31.95966,
    "Distance_to_CBD": 5608,
    "Year": 2023,
    "Primary_School_Name": "RIVERVALE PRIMARY SCHOOL",
    "Secondary_School_Name": "ST CLARE'S SCHOOL"
  },
  {
    "Listing_ID": 134740526,
    "Price": 329000,
    "Suburb": "Langford",
    "Address": "124 Cortis Way",
    "Property_Type": "house",
    "Bedrooms": 3,
    "Bathrooms": 1,
    "Parking_Spaces": 1,
    "Land_Size": 681,
    "Longitude": 115.94644,
    "Latitude": -32.0419,
    "Distance_to_CBD": 12939,
    "Year": 2021,
    "Primary_School_Name": "BROOKMAN PRIMARY SCHOOL",
    "Secondary_School_Name": "LANGFORD ISLAMIC COLLEGE"
  },
  {
    "Listing_ID": 141093520,
    "Price": 1062000,
    "Suburb": "Gwelup",
    "Address": "23 Mallee Way",
    "Property_Type": "house",
    "Bedrooms": 4,
    "Bathrooms": 2,
    "Parking_Spaces": 2,
    "Land_Size": 420,
    "Longitude": 115.79217,
    "Latitude": -31.86943,
    "Distance_to_CBD": 11162,
    "Year": 2023,
    "Primary_School_Name": "LAKE GWELUP PRIMARY SCHOOL",
    "Secondary_School_Name": "BALCATTA SENIOR HIGH SCHOOL"
  },
  {
    "Listing_ID": 144148632,
    "Price": 660000,
    "Suburb": "Bibra Lake",
    "Address": "23 Farmhouse Drive",
    "Property_Type": "house",
    "Bedrooms": 3,
    "Bathrooms": 1,
    "Parking_Spaces": 1,
    "Land_Size": 709,
    "Longitude": 115.83883,
    "Latitude": -32.09715,
    "Distance_to_CBD": 16020,
    "Year": 2024,
    "Primary_School_Name": "BIBRA LAKE PRIMARY SCHOOL",
    "Secondary_School_Name": "LAKELAND SENIOR HIGH SCHOOL"
  },
  {
    "Listing_ID": 137302166,
    "Price": 310000,
    "Suburb": "Tuart Hill",
    "Address": "7/95 Tyler Street",
    "Property_Type": "apartment",
    "Bedrooms": 1,
    "Bathrooms": 1,
    "Parking_Spaces": 1,
    "Land_Size": 70,
    "Longitude": 115.8305174,
    "Latitude": -31.90474518,
    "Distance_to_CBD": 5961,
    "Year": 2022,
    "Primary_School_Name": "ST KIERAN CATHOLIC PRIMARY SCHOOL",
    "Secondary_School_Name": "SERVITE COLLEGE"
  },
  {
    "Listing_ID": 141668500,
    "Price": 471000,
    "Suburb": "Carlisle",
    "Address": "3/103 Bishopsgate Street",
    "Property_Type": "villa",
    "Bedrooms": 3,
    "Bathrooms": 1,
    "Parking_Spaces": 2,
    "Land_Size": 225,
    "Longitude": 115.91314,
    "Latitude": -31.9789,
    "Distance_to_CBD": 6003,
    "Year": 2023,
    "Primary_School_Name": "EAST VICTORIA PARK PRIMARY SCHOOL",
    "Secondary_School_Name": "ST CLARE'S SCHOOL"
  },
  {
    "Listing_ID": 142558612,
    "Price": 800000,
    "Suburb": "Cloverdale",
    "Address": "203  Fisher Street",
    "Property_Type": "house",
    "Bedrooms": 4,
    "Bathrooms": 2,
    "Parking_Spaces": 2,
    "Land_Size": 974,
    "Longitude": 115.93994,
    "Latitude": -31.96131,
    "Distance_to_CBD": 7884,
    "Year": 2023,
    "Primary_School_Name": "CLOVERDALE PRIMARY SCHOOL",
    "Secondary_School_Name": "BELMONT CITY COLLEGE"
  },
  {
    "Listing_ID": 144897912,
    "Price": 740000,
    "Suburb": "Pearsall",
    "Address": "16 Malbec Court",
    "Property_Type": "house",
    "Bedrooms": 4,
    "Bathrooms": 2,
    "Parking_Spaces": 2,
    "Land_Size": 317,
    "Longitude": 115.8286279,
    "Latitude": -31.78485566,
    "Distance_to_CBD": 18894,
    "Year": 2024,
    "Primary_School_Name": "PEARSALL PRIMARY SCHOOL",
    "Secondary_School_Name": "ALTA-1"
  },
  {
    "Listing_ID": 134415214,
    "Price": 690000,
    "Suburb": "Shelley",
    "Address": "1/48 Barbican Street",
    "Property_Type": "house",
    "Bedrooms": 3,
    "Bathrooms": 2,
    "Parking_Spaces": 2,
    "Land_Size": 451,
    "Longitude": 115.88924,
    "Latitude": -32.02769,
    "Distance_to_CBD": 8770,
    "Year": 2020,
    "Primary_School_Name": "QUEEN OF APOSTLES SCHOOL",
    "Secondary_School_Name": "CLONTARF ABORIGINAL COLLEGE"
  },
  {
    "Listing_ID": 143262112,
    "Price": 780000,
    "Suburb": "East Victoria Park",
    "Address": "106 Swansea Street",
    "Property_Type": "house",
    "Bedrooms": 3,
    "Bathrooms": 1,
    "Parking_Spaces": 1,
    "Land_Size": 742,
    "Longitude": 115.90817,
    "Latitude": -31.98707,
    "Distance_to_CBD": 6099,
    "Year": 2023,
    "Primary_School_Name": "EAST VICTORIA PARK PRIMARY SCHOOL",
    "Secondary_School_Name": "KENT STREET SENIOR HIGH SCHOOL"
  },
  {
    "Listing_ID": 144428200,
    "Price": 510000,
    "Suburb": "Balga",
    "Address": "72 Princess Road",
    "Property_Type": "house",
    "Bedrooms": 3,
    "Bathrooms": 2,
    "Parking_Spaces": 3,
    "Land_Size": 217,
    "Longitude": 115.8358468,
    "Latitude": -31.8584625,
    "Distance_to_CBD": 10729,
    "Year": 2024,
    "Primary_School_Name": "NORTH BALGA PRIMARY SCHOOL",
    "Secondary_School_Name": "BALGA SENIOR HIGH SCHOOL"
  },
  {
    "Listing_ID": 143747920,
    "Price": 760000,
    "Suburb": "Kardinya",
    "Address": "57 Mcbeth Way",
    "Property_Type": "house",
    "Bedrooms": 4,
    "Bathrooms": 2,
    "Parking_Spaces": 2,
    "Land_Size": 769,
    "Longitude": 115.81549,
    "Latitude": -32.07271,
    "Distance_to_CBD": 13788,
    "Year": 2023,
    "Primary_School_Name": "COOLBELLUP COMMUNITY SCHOOL",
    "Secondary_School_Name": "NORTH LAKE SENIOR CAMPUS"
  },
  {
    "Listing_ID": 129229710,
    "Price": 690000,
    "Suburb": "Samson",
    "Address": "26 Hanlin Way",
    "Property_Type": "house",
    "Bedrooms": 3,
    "Bathrooms": 2,
    "Parking_Spaces": 1,
    "Land_Size": 708,
    "Longitude": 115.798127,
    "Latitude": -32.072053,
    "Distance_to_CBD": 14275,
    "Year": 2018,
    "Primary_School_Name": "SAMSON PRIMARY SCHOOL",
    "Secondary_School_Name": "SETON CATHOLIC COLLEGE"
  },
  {
    "Listing_ID": 144796048,
    "Price": 650000,
    "Suburb": "Bentley",
    "Address": "2/74 Pitt",
    "Property_Type": "unit",
    "Bedrooms": 3,
    "Bathrooms": 2,
    "Parking_Spaces": 4,
    "Land_Size": 454,
    "Longitude": 115.9090648,
    "Latitude": -32.0057079,
    "Distance_to_CBD": 7594,
    "Year": 2024,
    "Primary_School_Name": "SANTA CLARA SCHOOL",
    "Secondary_School_Name": "CANNING COLLEGE"
  },
  {
    "Listing_ID": 136222246,
    "Price": 655000,
    "Suburb": "East Cannington",
    "Address": "5 Gianatti Ramble",
    "Property_Type": "house",
    "Bedrooms": 4,
    "Bathrooms": 2,
    "Parking_Spaces": 2,
    "Land_Size": 454,
    "Longitude": 115.9601978,
    "Latitude": -32.01295443,
    "Distance_to_CBD": 11768,
    "Year": 2021,
    "Primary_School_Name": "GIBBS STREET PRIMARY SCHOOL",
    "Secondary_School_Name": "SEVENOAKS SENIOR COLLEGE"
  },
  {
    "Listing_ID": 141551296,
    "Price": 477000,
    "Suburb": "Pearsall",
    "Address": "47A Matta Way",
    "Property_Type": "house",
    "Bedrooms": 3,
    "Bathrooms": 2,
    "Parking_Spaces": 2,
    "Land_Size": 270,
    "Longitude": 115.8184892,
    "Latitude": -31.7847902,
    "Distance_to_CBD": 19061,
    "Year": 2023,
    "Primary_School_Name": "PEARSALL PRIMARY SCHOOL",
    "Secondary_School_Name": "ALTA-1"
  },
  {
    "Listing_ID": 141976524,
    "Price": 270000,
    "Suburb": "Midvale",
    "Address": "258A Morrison Road",
    "Property_Type": "house",
    "Bedrooms": 2,
    "Bathrooms": 1,
    "Parking_Spaces": 2,
    "Land_Size": 558,
    "Longitude": 116.03474,
    "Latitude": -31.88622,
    "Distance_to_CBD": 18387,
    "Year": 2023,
    "Primary_School_Name": "MOORDITJ NOONGAR COMMUNITY COLLEGE",
    "Secondary_School_Name": "SWAN VIEW SENIOR HIGH SCHOOL"
  },
  {
    "Listing_ID": 142807756,
    "Price": 701000,
    "Suburb": "Hamersley",
    "Address": "6 Katrine Way",
    "Property_Type": "house",
    "Bedrooms": 4,
    "Bathrooms": 2,
    "Parking_Spaces": 1,
    "Land_Size": 718,
    "Longitude": 115.8150479,
    "Latitude": -31.84752787,
    "Distance_to_CBD": 12405,
    "Year": 2023,
    "Primary_School_Name": "EAST HAMERSLEY PRIMARY SCHOOL",
    "Secondary_School_Name": "WARWICK SENIOR HIGH SCHOOL"
  },
  {
    "Listing_ID": 141263352,
    "Price": 369500,
    "Suburb": "Queens Park",
    "Address": "37B Renou Street",
    "Property_Type": "house",
    "Bedrooms": 3,
    "Bathrooms": 1,
    "Parking_Spaces": 2,
    "Land_Size": 287,
    "Longitude": 115.94491,
    "Latitude": -32.01095,
    "Distance_to_CBD": 10465,
    "Year": 2023,
    "Primary_School_Name": "ST JOSEPH'S SCHOOL",
    "Secondary_School_Name": "SEVENOAKS SENIOR COLLEGE"
  },
  {
    "Listing_ID": 128840966,
    "Price": 750000,
    "Suburb": "Marmion",
    "Address": "19 Howell Street",
    "Property_Type": "house",
    "Bedrooms": 3,
    "Bathrooms": 2,
    "Parking_Spaces": 2,
    "Land_Size": 791,
    "Longitude": 115.762997,
    "Latitude": -31.838616,
    "Distance_to_CBD": 15539,
    "Year": 2018,
    "Primary_School_Name": "MARMION PRIMARY SCHOOL",
    "Secondary_School_Name": "DUNCRAIG SENIOR HIGH SCHOOL"
  },
  {
    "Listing_ID": 142244624,
    "Price": 600000,
    "Suburb": "Caversham",
    "Address": "10 Pensacola Avenue",
    "Property_Type": "house",
    "Bedrooms": 3,
    "Bathrooms": 2,
    "Parking_Spaces": 5,
    "Land_Size": 598,
    "Longitude": 115.9614752,
    "Latitude": -31.86728685,
    "Distance_to_CBD": 13747,
    "Year": 2023,
    "Primary_School_Name": "CAVERSHAM VALLEY PRIMARY SCHOOL",
    "Secondary_School_Name": "KIARA COLLEGE"
  },
  {
    "Listing_ID": 124262854,
    "Price": 1485000,
    "Suburb": "South Fremantle",
    "Address": "240 South Terrace",
    "Property_Type": "house",
    "Bedrooms": 3,
    "Bathrooms": 2,
    "Parking_Spaces": 8,
    "Land_Size": 876,
    "Longitude": 115.752724,
    "Latitude": -32.064062,
    "Distance_to_CBD": 15730,
    "Year": 2017,
    "Primary_School_Name": "FREMANTLE PRIMARY SCHOOL",
    "Secondary_School_Name": "CHRISTIAN BROTHERS' COLLEGE"
  },
  {
    "Listing_ID": 136533430,
    "Price": 616000,
    "Suburb": "Noranda",
    "Address": "22 Holden Drive",
    "Property_Type": "house",
    "Bedrooms": 3,
    "Bathrooms": 2,
    "Parking_Spaces": 2,
    "Land_Size": 707,
    "Longitude": 115.89931,
    "Latitude": -31.87332,
    "Distance_to_CBD": 9749,
    "Year": 2021,
    "Primary_School_Name": "CAMBOON PRIMARY SCHOOL",
    "Secondary_School_Name": "MORLEY SENIOR HIGH SCHOOL"
  },
  {
    "Listing_ID": 144255888,
    "Price": 521000,
    "Suburb": "Kenwick",
    "Address": "75 Lalor Road",
    "Property_Type": "house",
    "Bedrooms": 3,
    "Bathrooms": 1,
    "Parking_Spaces": 2,
    "Land_Size": 683,
    "Longitude": 115.98045,
    "Latitude": -32.0371,
    "Distance_to_CBD": 14896,
    "Year": 2024,
    "Primary_School_Name": "EAST KENWICK PRIMARY SCHOOL",
    "Secondary_School_Name": "REHOBOTH CHRISTIAN COLLEGE"
  },
  {
    "Listing_ID": 142780932,
    "Price": 450000,
    "Suburb": "Padbury",
    "Address": "19/67 Gibson Avenue",
    "Property_Type": "house",
    "Bedrooms": 3,
    "Bathrooms": 1,
    "Parking_Spaces": 1,
    "Land_Size": 161,
    "Longitude": 115.7675584,
    "Latitude": -31.81131469,
    "Distance_to_CBD": 17897,
    "Year": 2023,
    "Primary_School_Name": "SOUTH PADBURY PRIMARY SCHOOL",
    "Secondary_School_Name": "DUNCRAIG SENIOR HIGH SCHOOL"
  },
  {
    "Listing_ID": 141789264,
    "Price": 2270000,
    "Suburb": "Churchlands",
    "Address": "47 Thornbill Way",
    "Property_Type": "house",
    "Bedrooms": 5,
    "Bathrooms": 3,
    "Parking_Spaces": 2,
    "Land_Size": 720,
    "Longitude": 115.79638,
    "Latitude": -31.92272,
    "Distance_to_CBD": 6676,
    "Year": 2023,
    "Primary_School_Name": "CHURCHLANDS PRIMARY SCHOOL",
    "Secondary_School_Name": "CHURCHLANDS SENIOR HIGH SCHOOL"
  },
  {
    "Listing_ID": 143563044,
    "Price": 990000,
    "Suburb": "Palmyra",
    "Address": "56A Adrian Street",
    "Property_Type": "house",
    "Bedrooms": 3,
    "Bathrooms": 2,
    "Parking_Spaces": 1,
    "Land_Size": 580,
    "Longitude": 115.7821779,
    "Latitude": -32.04415078,
    "Distance_to_CBD": 12291,
    "Year": 2023,
    "Primary_School_Name": "PALMYRA PRIMARY SCHOOL",
    "Secondary_School_Name": "MELVILLE SENIOR HIGH SCHOOL"
  },
  {
    "Listing_ID": 144185292,
    "Price": 450000,
    "Suburb": "Langford",
    "Address": "14/39 Woodmore Road",
    "Property_Type": "unit",
    "Bedrooms": 3,
    "Bathrooms": 1,
    "Parking_Spaces": 1,
    "Land_Size": 306,
    "Longitude": 115.93577,
    "Latitude": -32.04984,
    "Distance_to_CBD": 13016,
    "Year": 2024,
    "Primary_School_Name": "LANGFORD ISLAMIC COLLEGE",
    "Secondary_School_Name": "LANGFORD ISLAMIC COLLEGE"
  },
  {
    "Listing_ID": 118122527,
    "Price": 705000,
    "Suburb": "Highgate",
    "Address": "43 Smith Street",
    "Property_Type": "house",
    "Bedrooms": 2,
    "Bathrooms": 1,
    "Parking_Spaces": 2,
    "Land_Size": 238,
    "Longitude": 115.870883,
    "Latitude": -31.941077,
    "Distance_to_CBD": 1901,
    "Year": 2014,
    "Primary_School_Name": "SACRED HEART PRIMARY SCHOOL",
    "Secondary_School_Name": "PERTH COLLEGE"
  },
  {
    "Listing_ID": 139638795,
    "Price": 490000,
    "Suburb": "Southern River",
    "Address": "31 Orpington Drive",
    "Property_Type": "house",
    "Bedrooms": 4,
    "Bathrooms": 2,
    "Parking_Spaces": 2,
    "Land_Size": 396,
    "Longitude": 115.9688221,
    "Latitude": -32.09757372,
    "Distance_to_CBD": 19149,
    "Year": 2022,
    "Primary_School_Name": "SOUTHERN GROVE PRIMARY SCHOOL",
    "Secondary_School_Name": "SOUTHERN RIVER COLLEGE"
  },
  {
    "Listing_ID": 145206444,
    "Price": 850000,
    "Suburb": "Forrestfield",
    "Address": "12 Leiden Place",
    "Property_Type": "house",
    "Bedrooms": 5,
    "Bathrooms": 2,
    "Parking_Spaces": 3,
    "Land_Size": 906,
    "Longitude": 116.00657,
    "Latitude": -31.99504,
    "Distance_to_CBD": 14864,
    "Year": 2024,
    "Primary_School_Name": "FORRESTFIELD PRIMARY SCHOOL",
    "Secondary_School_Name": "HERITAGE COLLEGE PERTH"
  },
  {
    "Listing_ID": 137980966,
    "Price": 985000,
    "Suburb": "Stirling",
    "Address": "20 Mapleton Street",
    "Property_Type": "house",
    "Bedrooms": 4,
    "Bathrooms": 2,
    "Parking_Spaces": 2,
    "Land_Size": 549,
    "Longitude": 115.815275,
    "Latitude": -31.89683021,
    "Distance_to_CBD": 7424,
    "Year": 2022,
    "Primary_School_Name": "OSBORNE PRIMARY SCHOOL",
    "Secondary_School_Name": "SERVITE COLLEGE"
  },
  {
    "Listing_ID": 135676138,
    "Price": 775000,
    "Suburb": "Woodbridge",
    "Address": "9 Devon Street",
    "Property_Type": "house",
    "Bedrooms": 3,
    "Bathrooms": 1,
    "Parking_Spaces": 2,
    "Land_Size": 1012,
    "Longitude": 115.98946,
    "Latitude": -31.89274,
    "Distance_to_CBD": 14220,
    "Year": 2021,
    "Primary_School_Name": "WOODBRIDGE PRIMARY SCHOOL",
    "Secondary_School_Name": "GOVERNOR STIRLING SENIOR HIGH SCHOOL"
  },
  {
    "Listing_ID": 143501152,
    "Price": 615000,
    "Suburb": "Greenwood",
    "Address": "35 Dargin Place",
    "Property_Type": "house",
    "Bedrooms": 4,
    "Bathrooms": 2,
    "Parking_Spaces": 2,
    "Land_Size": 785,
    "Longitude": 115.81695,
    "Latitude": -31.82793,
    "Distance_to_CBD": 14433,
    "Year": 2023,
    "Primary_School_Name": "GREENWOOD PRIMARY SCHOOL",
    "Secondary_School_Name": "WARWICK SENIOR HIGH SCHOOL"
  },
  {
    "Listing_ID": 139732039,
    "Price": 715000,
    "Suburb": "Yangebup",
    "Address": "3 Gull Way",
    "Property_Type": "house",
    "Bedrooms": 4,
    "Bathrooms": 2,
    "Parking_Spaces": 2,
    "Land_Size": 948,
    "Longitude": 115.82153,
    "Latitude": -32.11882,
    "Distance_to_CBD": 18635,
    "Year": 2022,
    "Primary_School_Name": "YANGEBUP PRIMARY SCHOOL",
    "Secondary_School_Name": "DIVINE MERCY COLLEGE"
  },
  {
    "Listing_ID": 141578844,
    "Price": 490000,
    "Suburb": "Swan View",
    "Address": "5 Travers Way",
    "Property_Type": "house",
    "Bedrooms": 3,
    "Bathrooms": 2,
    "Parking_Spaces": 2,
    "Land_Size": 740,
    "Longitude": 116.0476,
    "Latitude": -31.88969,
    "Distance_to_CBD": 19361,
    "Year": 2023,
    "Primary_School_Name": "SWAN VIEW PRIMARY SCHOOL",
    "Secondary_School_Name": "SWAN VIEW SENIOR HIGH SCHOOL"
  },
  {
    "Listing_ID": 139494587,
    "Price": 950000,
    "Suburb": "Mosman Park",
    "Address": "11B Murray Avenue",
    "Property_Type": "house",
    "Bedrooms": 3,
    "Bathrooms": 2,
    "Parking_Spaces": 1,
    "Land_Size": 165,
    "Longitude": 115.759447,
    "Latitude": -32.00916345,
    "Distance_to_CBD": 11098,
    "Year": 2022,
    "Primary_School_Name": "MOSMAN PARK PRIMARY SCHOOL",
    "Secondary_School_Name": "IONA PRESENTATION COLLEGE"
  },
  {
    "Listing_ID": 138360187,
    "Price": 870000,
    "Suburb": "Carlisle",
    "Address": "20 Star Street",
    "Property_Type": "house",
    "Bedrooms": 4,
    "Bathrooms": 1,
    "Parking_Spaces": 3,
    "Land_Size": 589,
    "Longitude": 115.91299,
    "Latitude": -31.97319,
    "Distance_to_CBD": 5721,
    "Year": 2022,
    "Primary_School_Name": "LATHLAIN PRIMARY SCHOOL",
    "Secondary_School_Name": "ST CLARE'S SCHOOL"
  },
  {
    "Listing_ID": 143824440,
    "Price": 566000,
    "Suburb": "South Lake",
    "Address": "128 Elderberry Drive",
    "Property_Type": "house",
    "Bedrooms": 4,
    "Bathrooms": 1,
    "Parking_Spaces": 1,
    "Land_Size": 747,
    "Longitude": 115.84601,
    "Latitude": -32.10448,
    "Distance_to_CBD": 16773,
    "Year": 2024,
    "Primary_School_Name": "SOUTH LAKE PRIMARY SCHOOL",
    "Secondary_School_Name": "LAKELAND SENIOR HIGH SCHOOL"
  },
  {
    "Listing_ID": 143730008,
    "Price": 3500000,
    "Suburb": "Claremont",
    "Address": "4 Renown Avenue",
    "Property_Type": "house",
    "Bedrooms": 5,
    "Bathrooms": 3,
    "Parking_Spaces": 4,
    "Land_Size": 931,
    "Longitude": 115.77052,
    "Latitude": -31.98841,
    "Distance_to_CBD": 9048,
    "Year": 2024,
    "Primary_School_Name": "METHODIST LADIES' COLLEGE",
    "Secondary_School_Name": "METHODIST LADIES' COLLEGE"
  },
  {
    "Listing_ID": 143019112,
    "Price": 910000,
    "Suburb": "Kingsley",
    "Address": "15 Granton Way",
    "Property_Type": "house",
    "Bedrooms": 4,
    "Bathrooms": 2,
    "Parking_Spaces": 2,
    "Land_Size": 744,
    "Longitude": 115.79588,
    "Latitude": -31.80434,
    "Distance_to_CBD": 17524,
    "Year": 2023,
    "Primary_School_Name": "HALIDON PRIMARY SCHOOL",
    "Secondary_School_Name": "WOODVALE SECONDARY COLLEGE"
  },
  {
    "Listing_ID": 135280550,
    "Price": 540000,
    "Suburb": "Redcliffe",
    "Address": "23 Lintonmarc Drive",
    "Property_Type": "house",
    "Bedrooms": 4,
    "Bathrooms": 2,
    "Parking_Spaces": 2,
    "Land_Size": 599,
    "Longitude": 115.94722,
    "Latitude": -31.9447,
    "Distance_to_CBD": 8581,
    "Year": 2021,
    "Primary_School_Name": "BELMAY PRIMARY SCHOOL",
    "Secondary_School_Name": "BELMONT CITY COLLEGE"
  },
  {
    "Listing_ID": 133859138,
    "Price": 812000,
    "Suburb": "North Beach",
    "Address": "64A Hope Street",
    "Property_Type": "house",
    "Bedrooms": 3,
    "Bathrooms": 2,
    "Parking_Spaces": 2,
    "Land_Size": 542,
    "Longitude": 115.757418,
    "Latitude": -31.85503957,
    "Distance_to_CBD": 14424,
    "Year": 2020,
    "Primary_School_Name": "NORTH BEACH PRIMARY SCHOOL",
    "Secondary_School_Name": "CARINE SENIOR HIGH SCHOOL"
  },
  {
    "Listing_ID": 135563490,
    "Price": 1250000,
    "Suburb": "Ardross",
    "Address": "23 Bombard Street",
    "Property_Type": "house",
    "Bedrooms": 3,
    "Bathrooms": 2,
    "Parking_Spaces": 2,
    "Land_Size": 565,
    "Longitude": 115.8397207,
    "Latitude": -32.01957005,
    "Distance_to_CBD": 7506,
    "Year": 2021,
    "Primary_School_Name": "ST BENEDICT'S SCHOOL",
    "Secondary_School_Name": "APPLECROSS SENIOR HIGH SCHOOL"
  },
  {
    "Listing_ID": 139135679,
    "Price": 610000,
    "Suburb": "Eden Hill",
    "Address": "12 Naunton Crescent",
    "Property_Type": "house",
    "Bedrooms": 4,
    "Bathrooms": 2,
    "Parking_Spaces": 7,
    "Land_Size": 684,
    "Longitude": 115.93606,
    "Latitude": -31.89283,
    "Distance_to_CBD": 10055,
    "Year": 2022,
    "Primary_School_Name": "ANZAC TERRACE PRIMARY SCHOOL",
    "Secondary_School_Name": "HAMPTON SENIOR HIGH SCHOOL"
  },
  {
    "Listing_ID": 142749576,
    "Price": 555000,
    "Suburb": "Bayswater",
    "Address": "2/106 Hardy Road",
    "Property_Type": "house",
    "Bedrooms": 4,
    "Bathrooms": 2,
    "Parking_Spaces": 2,
    "Land_Size": 319,
    "Longitude": 115.9346999,
    "Latitude": -31.92269596,
    "Distance_to_CBD": 8099,
    "Year": 2023,
    "Primary_School_Name": "ASHFIELD PRIMARY SCHOOL",
    "Secondary_School_Name": "CYRIL JACKSON SENIOR CAMPUS"
  },
  {
    "Listing_ID": 139754491,
    "Price": 315000,
    "Suburb": "Redcliffe",
    "Address": "1/5 Parkview Parade",
    "Property_Type": "apartment",
    "Bedrooms": 2,
    "Bathrooms": 2,
    "Parking_Spaces": 1,
    "Land_Size": 104,
    "Longitude": 115.943341,
    "Latitude": -31.94494544,
    "Distance_to_CBD": 8214,
    "Year": 2022,
    "Primary_School_Name": "ST MARIA GORETTI'S CATHOLIC SCHOOL",
    "Secondary_School_Name": "BELMONT CITY COLLEGE"
  },
  {
    "Listing_ID": 143995864,
    "Price": 1110000,
    "Suburb": "Fremantle",
    "Address": "176 Forrest Street",
    "Property_Type": "house",
    "Bedrooms": 4,
    "Bathrooms": 2,
    "Parking_Spaces": 6,
    "Land_Size": 713,
    "Longitude": 115.7784507,
    "Latitude": -32.04791068,
    "Distance_to_CBD": 12835,
    "Year": 2024,
    "Primary_School_Name": "PALMYRA PRIMARY SCHOOL",
    "Secondary_School_Name": "JOHN CURTIN COLLEGE OF THE ARTS"
  },
  {
    "Listing_ID": 129811122,
    "Price": 542000,
    "Suburb": "Rossmoyne",
    "Address": "40A Bull Creek Road",
    "Property_Type": "house",
    "Bedrooms": 3,
    "Bathrooms": 1,
    "Parking_Spaces": 1,
    "Land_Size": 444,
    "Longitude": 115.86781,
    "Latitude": -32.04483,
    "Distance_to_CBD": 10177,
    "Year": 2019,
    "Primary_School_Name": "ROSSMOYNE PRIMARY SCHOOL",
    "Secondary_School_Name": "ROSSMOYNE SENIOR HIGH SCHOOL"
  },
  {
    "Listing_ID": 143274380,
    "Price": 750000,
    "Suburb": "Kewdale",
    "Address": "22 Ray Road",
    "Property_Type": "house",
    "Bedrooms": 3,
    "Bathrooms": 1,
    "Parking_Spaces": 5,
    "Land_Size": 809,
    "Longitude": 115.92668,
    "Latitude": -31.96888,
    "Distance_to_CBD": 6800,
    "Year": 2023,
    "Primary_School_Name": "CARLISLE PRIMARY SCHOOL",
    "Secondary_School_Name": "AUSTRALIAN ISLAMIC COLLEGE - KEWDALE"
  },
  {
    "Listing_ID": 144146876,
    "Price": 3795000,
    "Suburb": "City Beach",
    "Address": "25 Dilkara Way",
    "Property_Type": "house",
    "Bedrooms": 3,
    "Bathrooms": 2,
    "Parking_Spaces": 2,
    "Land_Size": 424,
    "Longitude": 115.7598578,
    "Latitude": -31.91190708,
    "Distance_to_CBD": 10283,
    "Year": 2024,
    "Primary_School_Name": "HOLY SPIRIT SCHOOL",
    "Secondary_School_Name": "INTERNATIONAL SCHOOL OF WESTERN AUSTRALIA"
  },
  {
    "Listing_ID": 144419000,
    "Price": 440000,
    "Suburb": "Dianella",
    "Address": "2/407 Coode Street",
    "Property_Type": "house",
    "Bedrooms": 3,
    "Bathrooms": 1,
    "Parking_Spaces": 2,
    "Land_Size": 161,
    "Longitude": 115.88232,
    "Latitude": -31.89402,
    "Distance_to_CBD": 7016,
    "Year": 2023,
    "Primary_School_Name": "WEST MORLEY PRIMARY SCHOOL",
    "Secondary_School_Name": "AUSTRALIAN ISLAMIC COLLEGE - NORTH OF THE RIVER"
  },
  {
    "Listing_ID": 142773664,
    "Price": 770000,
    "Suburb": "Ballajura",
    "Address": "3 Island Retreat",
    "Property_Type": "house",
    "Bedrooms": 5,
    "Bathrooms": 2,
    "Parking_Spaces": 2,
    "Land_Size": 900,
    "Longitude": 115.89026,
    "Latitude": -31.84089,
    "Distance_to_CBD": 12877,
    "Year": 2023,
    "Primary_School_Name": "BALLAJURA PRIMARY SCHOOL",
    "Secondary_School_Name": "BALLAJURA COMMUNITY COLLEGE"
  },
  {
    "Listing_ID": 133443994,
    "Price": 875000,
    "Suburb": "Lathlain",
    "Address": "28 Egham Road",
    "Property_Type": "house",
    "Bedrooms": 3,
    "Bathrooms": 1,
    "Parking_Spaces": 2,
    "Land_Size": 926,
    "Longitude": 115.90117,
    "Latitude": -31.96646,
    "Distance_to_CBD": 4411,
    "Year": 2021,
    "Primary_School_Name": "PERTH INDIVIDUAL",
    "Secondary_School_Name": "PERTH INDIVIDUAL"
  },
  {
    "Listing_ID": 145158344,
    "Price": 385000,
    "Suburb": "Cockburn Central",
    "Address": "66/23 Junction Boulevard",
    "Property_Type": "apartment",
    "Bedrooms": 1,
    "Bathrooms": 1,
    "Parking_Spaces": 1,
    "Land_Size": 86,
    "Longitude": 115.8568433,
    "Latitude": -32.12523662,
    "Distance_to_CBD": 19042,
    "Year": 2024,
    "Primary_School_Name": "ATWELL PRIMARY SCHOOL",
    "Secondary_School_Name": "HAVENPORT MSL COLLEGE"
  },
  {
    "Listing_ID": 141660320,
    "Price": 520000,
    "Suburb": "Padbury",
    "Address": "3 Baxter Way",
    "Property_Type": "house",
    "Bedrooms": 3,
    "Bathrooms": 1,
    "Parking_Spaces": 0,
    "Land_Size": 397,
    "Longitude": 115.75896,
    "Latitude": -31.79688,
    "Distance_to_CBD": 19692,
    "Year": 2023,
    "Primary_School_Name": "BAMBARA PRIMARY SCHOOL",
    "Secondary_School_Name": "ST MARK'S ANGLICAN COMMUNITY SCHOOL"
  },
  {
    "Listing_ID": 139241983,
    "Price": 369000,
    "Suburb": "Woodbridge",
    "Address": "57A Harper Street",
    "Property_Type": "house",
    "Bedrooms": 3,
    "Bathrooms": 1,
    "Parking_Spaces": 1,
    "Land_Size": 258,
    "Longitude": 115.9980416,
    "Latitude": -31.8858591,
    "Distance_to_CBD": 15300,
    "Year": 2022,
    "Primary_School_Name": "HELENA RIVER STEINER SCHOOL",
    "Secondary_School_Name": "LA SALLE COLLEGE"
  },
  {
    "Listing_ID": 142231584,
    "Price": 1050000,
    "Suburb": "Bayswater",
    "Address": "3 Rotary Place",
    "Property_Type": "house",
    "Bedrooms": 4,
    "Bathrooms": 2,
    "Parking_Spaces": 2,
    "Land_Size": 483,
    "Longitude": 115.9274674,
    "Latitude": -31.92514682,
    "Distance_to_CBD": 7364,
    "Year": 2023,
    "Primary_School_Name": "BAYSWATER PRIMARY SCHOOL",
    "Secondary_School_Name": "CYRIL JACKSON SENIOR CAMPUS"
  },
  {
    "Listing_ID": 137605438,
    "Price": 660000,
    "Suburb": "Willagee",
    "Address": "79 Arkwell Street",
    "Property_Type": "house",
    "Bedrooms": 3,
    "Bathrooms": 1,
    "Parking_Spaces": 1,
    "Land_Size": 816,
    "Longitude": 115.79907,
    "Latitude": -32.04973,
    "Distance_to_CBD": 11994,
    "Year": 2021,
    "Primary_School_Name": "CARALEE COMMUNITY SCHOOL",
    "Secondary_School_Name": "MELVILLE SENIOR HIGH SCHOOL"
  },
  {
    "Listing_ID": 139672479,
    "Price": 790000,
    "Suburb": "Fremantle",
    "Address": "1/156 Holland Street",
    "Property_Type": "house",
    "Bedrooms": 3,
    "Bathrooms": 2,
    "Parking_Spaces": 2,
    "Land_Size": 351,
    "Longitude": 115.7760371,
    "Latitude": -32.04912647,
    "Distance_to_CBD": 13077,
    "Year": 2022,
    "Primary_School_Name": "PALMYRA PRIMARY SCHOOL",
    "Secondary_School_Name": "JOHN CURTIN COLLEGE OF THE ARTS"
  },
  {
    "Listing_ID": 135269974,
    "Price": 400000,
    "Suburb": "Trigg",
    "Address": "3/6 Ozone Parade",
    "Property_Type": "unit",
    "Bedrooms": 2,
    "Bathrooms": 1,
    "Parking_Spaces": 1,
    "Land_Size": 126,
    "Longitude": 115.758738,
    "Latitude": -31.88643112,
    "Distance_to_CBD": 11907,
    "Year": 2021,
    "Primary_School_Name": "DEANMORE PRIMARY SCHOOL",
    "Secondary_School_Name": "ST MARY'S ANGLICAN GIRLS' SCHOOL"
  },
  {
    "Listing_ID": 144944572,
    "Price": 985000,
    "Suburb": "Helena Valley",
    "Address": "4 Tallow Grove",
    "Property_Type": "house",
    "Bedrooms": 5,
    "Bathrooms": 2,
    "Parking_Spaces": 6,
    "Land_Size": 1029,
    "Longitude": 116.02895,
    "Latitude": -31.91171,
    "Distance_to_CBD": 16903,
    "Year": 2024,
    "Primary_School_Name": "CLAYTON VIEW PRIMARY SCHOOL",
    "Secondary_School_Name": "SWAN VIEW SENIOR HIGH SCHOOL"
  },
  {
    "Listing_ID": 140110131,
    "Price": 595000,
    "Suburb": "Coolbellup",
    "Address": "16 Quinlan Street",
    "Property_Type": "house",
    "Bedrooms": 4,
    "Bathrooms": 2,
    "Parking_Spaces": 2,
    "Land_Size": 359,
    "Longitude": 115.79748,
    "Latitude": -32.07738,
    "Distance_to_CBD": 14844,
    "Year": 2022,
    "Primary_School_Name": "SAMSON PRIMARY SCHOOL",
    "Secondary_School_Name": "SETON CATHOLIC COLLEGE"
  },
  {
    "Listing_ID": 141484016,
    "Price": 660000,
    "Suburb": "East Cannington",
    "Address": "60 Henry Street",
    "Property_Type": "house",
    "Bedrooms": 2,
    "Bathrooms": 1,
    "Parking_Spaces": 1,
    "Land_Size": 1012,
    "Longitude": 115.95176,
    "Latitude": -32.01718,
    "Distance_to_CBD": 11400,
    "Year": 2023,
    "Primary_School_Name": "BECKENHAM PRIMARY SCHOOL",
    "Secondary_School_Name": "SEVENOAKS SENIOR COLLEGE"
  },
  {
    "Listing_ID": 124306890,
    "Price": 740000,
    "Suburb": "Ascot",
    "Address": "5 Hilton Grove",
    "Property_Type": "house",
    "Bedrooms": 4,
    "Bathrooms": 2,
    "Parking_Spaces": 5,
    "Land_Size": 663,
    "Longitude": 115.946162,
    "Latitude": -31.923281,
    "Distance_to_CBD": 9069,
    "Year": 2017,
    "Primary_School_Name": "ASHFIELD PRIMARY SCHOOL",
    "Secondary_School_Name": "CYRIL JACKSON SENIOR CAMPUS"
  },
  {
    "Listing_ID": 142924684,
    "Price": 1150000,
    "Suburb": "Lathlain",
    "Address": "51 Howick Street",
    "Property_Type": "house",
    "Bedrooms": 4,
    "Bathrooms": 1,
    "Parking_Spaces": 2,
    "Land_Size": 1012,
    "Longitude": 115.9014,
    "Latitude": -31.96838,
    "Distance_to_CBD": 4505,
    "Year": 2023,
    "Primary_School_Name": "PERTH INDIVIDUAL",
    "Secondary_School_Name": "PERTH INDIVIDUAL"
  },
  {
    "Listing_ID": 140113515,
    "Price": 480000,
    "Suburb": "Alexander Heights",
    "Address": "18 Gerosa Place",
    "Property_Type": "house",
    "Bedrooms": 3,
    "Bathrooms": 2,
    "Parking_Spaces": 4,
    "Land_Size": 711,
    "Longitude": 115.86027,
    "Latitude": -31.83406,
    "Distance_to_CBD": 13249,
    "Year": 2022,
    "Primary_School_Name": "KOONDOOLA PRIMARY SCHOOL",
    "Secondary_School_Name": "MERCY COLLEGE"
  },
  {
    "Listing_ID": 143135788,
    "Price": 710000,
    "Suburb": "Padbury",
    "Address": "18 Macquarie Avenue",
    "Property_Type": "house",
    "Bedrooms": 4,
    "Bathrooms": 1,
    "Parking_Spaces": 1,
    "Land_Size": 684,
    "Longitude": 115.76476,
    "Latitude": -31.79811,
    "Distance_to_CBD": 19318,
    "Year": 2023,
    "Primary_School_Name": "BAMBARA PRIMARY SCHOOL",
    "Secondary_School_Name": "ST MARK'S ANGLICAN COMMUNITY SCHOOL"
  },
  {
    "Listing_ID": 141830404,
    "Price": 1600000,
    "Suburb": "Mount Hawthorn",
    "Address": "144 Fairfield Street",
    "Property_Type": "house",
    "Bedrooms": 4,
    "Bathrooms": 2,
    "Parking_Spaces": 2,
    "Land_Size": 445,
    "Longitude": 115.84038,
    "Latitude": -31.91458,
    "Distance_to_CBD": 4596,
    "Year": 2023,
    "Primary_School_Name": "MOUNT HAWTHORN PRIMARY SCHOOL",
    "Secondary_School_Name": "ARANMORE CATHOLIC COLLEGE"
  },
  {
    "Listing_ID": 140723975,
    "Price": 465000,
    "Suburb": "Yokine",
    "Address": "2/309 Cape Street",
    "Property_Type": "villa",
    "Bedrooms": 2,
    "Bathrooms": 1,
    "Parking_Spaces": 1,
    "Land_Size": 342,
    "Longitude": 115.8479248,
    "Latitude": -31.90199779,
    "Distance_to_CBD": 5777,
    "Year": 2022,
    "Primary_School_Name": "TUART HILL PRIMARY SCHOOL",
    "Secondary_School_Name": "SERVITE COLLEGE"
  },
  {
    "Listing_ID": 132157006,
    "Price": 775000,
    "Suburb": "South Fremantle",
    "Address": "42 Parmelia Street",
    "Property_Type": "house",
    "Bedrooms": 2,
    "Bathrooms": 1,
    "Parking_Spaces": 1,
    "Land_Size": 381,
    "Longitude": 115.7551283,
    "Latitude": -32.07333561,
    "Distance_to_CBD": 16409,
    "Year": 2019,
    "Primary_School_Name": "BEACONSFIELD PRIMARY SCHOOL",
    "Secondary_School_Name": "FREMANTLE COLLEGE"
  },
  {
    "Listing_ID": 132499978,
    "Price": 155000,
    "Suburb": "Lockridge",
    "Address": "60  DIANA CRESCENT",
    "Property_Type": "house",
    "Bedrooms": 4,
    "Bathrooms": 2,
    "Parking_Spaces": 2,
    "Land_Size": 349,
    "Longitude": 115.95001,
    "Latitude": -31.88181,
    "Distance_to_CBD": 11854,
    "Year": 2020,
    "Primary_School_Name": "LOCKRIDGE PRIMARY SCHOOL",
    "Secondary_School_Name": "KIARA COLLEGE"
  },
  {
    "Listing_ID": 119286431,
    "Price": 615000,
    "Suburb": "Samson",
    "Address": "51 Sellenger Avenue",
    "Property_Type": "house",
    "Bedrooms": 3,
    "Bathrooms": 2,
    "Parking_Spaces": 2,
    "Land_Size": 782,
    "Longitude": 115.796944,
    "Latitude": -32.07124,
    "Distance_to_CBD": 14236,
    "Year": 2015,
    "Primary_School_Name": "SAMSON PRIMARY SCHOOL",
    "Secondary_School_Name": "SETON CATHOLIC COLLEGE"
  },
  {
    "Listing_ID": 141199672,
    "Price": 740000,
    "Suburb": "Doubleview",
    "Address": "148 Wilding Street",
    "Property_Type": "house",
    "Bedrooms": 3,
    "Bathrooms": 2,
    "Parking_Spaces": 2,
    "Land_Size": 312,
    "Longitude": 115.7826693,
    "Latitude": -31.88774974,
    "Distance_to_CBD": 10132,
    "Year": 2023,
    "Primary_School_Name": "NEWBOROUGH PRIMARY SCHOOL",
    "Secondary_School_Name": "INTERNATIONAL SCHOOL OF WESTERN AUSTRALIA"
  },
  {
    "Listing_ID": 141708752,
    "Price": 3515000,
    "Suburb": "Applecross",
    "Address": "35 Kintail Road",
    "Property_Type": "house",
    "Bedrooms": 4,
    "Bathrooms": 3,
    "Parking_Spaces": 3,
    "Land_Size": 1012,
    "Longitude": 115.84494,
    "Latitude": -32.01089,
    "Distance_to_CBD": 6465,
    "Year": 2023,
    "Primary_School_Name": "APPLECROSS PRIMARY SCHOOL",
    "Secondary_School_Name": "APPLECROSS SENIOR HIGH SCHOOL"
  },
  {
    "Listing_ID": 142290760,
    "Price": 360000,
    "Suburb": "Maddington",
    "Address": "17/6 Gold Avenue",
    "Property_Type": "villa",
    "Bedrooms": 3,
    "Bathrooms": 2,
    "Parking_Spaces": 2,
    "Land_Size": 278,
    "Longitude": 115.99538,
    "Latitude": -32.05902,
    "Distance_to_CBD": 17542,
    "Year": 2023,
    "Primary_School_Name": "EAST MADDINGTON PRIMARY SCHOOL",
    "Secondary_School_Name": "YULE BROOK COLLEGE"
  },
  {
    "Listing_ID": 139853831,
    "Price": 830000,
    "Suburb": "Kardinya",
    "Address": "12B Stagg Court",
    "Property_Type": "house",
    "Bedrooms": 4,
    "Bathrooms": 3,
    "Parking_Spaces": 2,
    "Land_Size": 510,
    "Longitude": 115.8243646,
    "Latitude": -32.0585601,
    "Distance_to_CBD": 12051,
    "Year": 2022,
    "Primary_School_Name": "KARDINYA PRIMARY SCHOOL",
    "Secondary_School_Name": "KENNEDY BAPTIST COLLEGE"
  },
  {
    "Listing_ID": 138961147,
    "Price": 650000,
    "Suburb": "Bennett Springs",
    "Address": "5 Illume Way",
    "Property_Type": "house",
    "Bedrooms": 3,
    "Bathrooms": 2,
    "Parking_Spaces": 2,
    "Land_Size": 400,
    "Longitude": 115.9653301,
    "Latitude": -31.85709456,
    "Distance_to_CBD": 14806,
    "Year": 2022,
    "Primary_School_Name": "CAVERSHAM VALLEY PRIMARY SCHOOL",
    "Secondary_School_Name": "KIARA COLLEGE"
  },
  {
    "Listing_ID": 144822680,
    "Price": 965000,
    "Suburb": "Bayswater",
    "Address": "23 Essex Street",
    "Property_Type": "house",
    "Bedrooms": 4,
    "Bathrooms": 2,
    "Parking_Spaces": 2,
    "Land_Size": 400,
    "Longitude": 115.90375,
    "Latitude": -31.91687,
    "Distance_to_CBD": 6001,
    "Year": 2024,
    "Primary_School_Name": "HILLCREST PRIMARY SCHOOL",
    "Secondary_School_Name": "CHISHOLM CATHOLIC COLLEGE"
  },
  {
    "Listing_ID": 140190487,
    "Price": 537000,
    "Suburb": "Carlisle",
    "Address": "20 Harris Street",
    "Property_Type": "house",
    "Bedrooms": 3,
    "Bathrooms": 2,
    "Parking_Spaces": 2,
    "Land_Size": 289,
    "Longitude": 115.92579,
    "Latitude": -31.98088,
    "Distance_to_CBD": 7172,
    "Year": 2022,
    "Primary_School_Name": "AUSTRALIAN ISLAMIC COLLEGE - KEWDALE",
    "Secondary_School_Name": "AUSTRALIAN ISLAMIC COLLEGE - KEWDALE"
  },
  {
    "Listing_ID": 142945840,
    "Price": 1480000,
    "Suburb": "Kardinya",
    "Address": "7 Whelan Road",
    "Property_Type": "house",
    "Bedrooms": 5,
    "Bathrooms": 2,
    "Parking_Spaces": 2,
    "Land_Size": 837,
    "Longitude": 115.81017,
    "Latitude": -32.06409,
    "Distance_to_CBD": 13037,
    "Year": 2023,
    "Primary_School_Name": "SAMSON PRIMARY SCHOOL",
    "Secondary_School_Name": "NORTH LAKE SENIOR CAMPUS"
  },
  {
    "Listing_ID": 141613744,
    "Price": 810000,
    "Suburb": "Balcatta",
    "Address": "222 Jones Street",
    "Property_Type": "house",
    "Bedrooms": 5,
    "Bathrooms": 3,
    "Parking_Spaces": 2,
    "Land_Size": 822,
    "Longitude": 115.82116,
    "Latitude": -31.87023,
    "Distance_to_CBD": 9839,
    "Year": 2023,
    "Primary_School_Name": "TAKARI PRIMARY SCHOOL",
    "Secondary_School_Name": "BALCATTA SENIOR HIGH SCHOOL"
  },
  {
    "Listing_ID": 141835416,
    "Price": 352000,
    "Suburb": "Swan View",
    "Address": "6/32 Gladstone Avenue",
    "Property_Type": "house",
    "Bedrooms": 3,
    "Bathrooms": 2,
    "Parking_Spaces": 2,
    "Land_Size": 175,
    "Longitude": 116.0432142,
    "Latitude": -31.88926151,
    "Distance_to_CBD": 18993,
    "Year": 2023,
    "Primary_School_Name": "SWAN VIEW PRIMARY SCHOOL",
    "Secondary_School_Name": "SWAN VIEW SENIOR HIGH SCHOOL"
  },
  {
    "Listing_ID": 144599812,
    "Price": 1180000,
    "Suburb": "Karawara",
    "Address": "49 Lowan Loop",
    "Property_Type": "house",
    "Bedrooms": 3,
    "Bathrooms": 2,
    "Parking_Spaces": 2,
    "Land_Size": 565,
    "Longitude": 115.88373,
    "Latitude": -32.00867,
    "Distance_to_CBD": 6616,
    "Year": 2024,
    "Primary_School_Name": "CURTIN PRIMARY SCHOOL",
    "Secondary_School_Name": "CLONTARF ABORIGINAL COLLEGE"
  },
  {
    "Listing_ID": 145041988,
    "Price": 1200000,
    "Suburb": "Bedford",
    "Address": "61A Catherine Street",
    "Property_Type": "house",
    "Bedrooms": 4,
    "Bathrooms": 2,
    "Parking_Spaces": 2,
    "Land_Size": 364,
    "Longitude": 115.8949118,
    "Latitude": -31.90660005,
    "Distance_to_CBD": 6315,
    "Year": 2024,
    "Primary_School_Name": "HILLCREST PRIMARY SCHOOL",
    "Secondary_School_Name": "JOHN FORREST SECONDARY COLLEGE"
  },
  {
    "Listing_ID": 137764958,
    "Price": 1850000,
    "Suburb": "North Fremantle",
    "Address": "65 Harvest Road",
    "Property_Type": "house",
    "Bedrooms": 3,
    "Bathrooms": 2,
    "Parking_Spaces": 2,
    "Land_Size": 302,
    "Longitude": 115.75888,
    "Latitude": -32.031201,
    "Distance_to_CBD": 12660,
    "Year": 2022,
    "Primary_School_Name": "NORTH FREMANTLE PRIMARY SCHOOL",
    "Secondary_School_Name": "THE BEEHIVE MONTESSORI SCHOOL INC"
  },
  {
    "Listing_ID": 136921146,
    "Price": 460500,
    "Suburb": "Redcliffe",
    "Address": "16C Stanton Road",
    "Property_Type": "house",
    "Bedrooms": 4,
    "Bathrooms": 2,
    "Parking_Spaces": 2,
    "Land_Size": 200,
    "Longitude": 115.94041,
    "Latitude": -31.9413873,
    "Distance_to_CBD": 7995,
    "Year": 2021,
    "Primary_School_Name": "ST MARIA GORETTI'S CATHOLIC SCHOOL",
    "Secondary_School_Name": "BELMONT CITY COLLEGE"
  },
  {
    "Listing_ID": 139685511,
    "Price": 378000,
    "Suburb": "Lockridge",
    "Address": "4 Thorson Way",
    "Property_Type": "house",
    "Bedrooms": 3,
    "Bathrooms": 1,
    "Parking_Spaces": 7,
    "Land_Size": 824,
    "Longitude": 115.95427,
    "Latitude": -31.88186,
    "Distance_to_CBD": 12152,
    "Year": 2022,
    "Primary_School_Name": "LOCKRIDGE PRIMARY SCHOOL",
    "Secondary_School_Name": "KIARA COLLEGE"
  },
  {
    "Listing_ID": 145197532,
    "Price": 950000,
    "Suburb": "Balcatta",
    "Address": "31 Tillinga Street",
    "Property_Type": "house",
    "Bedrooms": 5,
    "Bathrooms": 2,
    "Parking_Spaces": 2,
    "Land_Size": 749,
    "Longitude": 115.82699,
    "Latitude": -31.87116,
    "Distance_to_CBD": 9564,
    "Year": 2024,
    "Primary_School_Name": "TAKARI PRIMARY SCHOOL",
    "Secondary_School_Name": "BALCATTA SENIOR HIGH SCHOOL"
  },
  {
    "Listing_ID": 141463784,
    "Price": 1710000,
    "Suburb": "Floreat",
    "Address": "143 The Boulevard",
    "Property_Type": "house",
    "Bedrooms": 4,
    "Bathrooms": 2,
    "Parking_Spaces": 2,
    "Land_Size": 986,
    "Longitude": 115.78616,
    "Latitude": -31.93245,
    "Distance_to_CBD": 7098,
    "Year": 2023,
    "Primary_School_Name": "FLOREAT PARK PRIMARY SCHOOL",
    "Secondary_School_Name": "NEWMAN COLLEGE"
  },
  {
    "Listing_ID": 128515730,
    "Price": 340000,
    "Suburb": "Osborne Park",
    "Address": "3/27 Swan Street",
    "Property_Type": "villa",
    "Bedrooms": 2,
    "Bathrooms": 1,
    "Parking_Spaces": 1,
    "Land_Size": 153,
    "Longitude": 115.826454,
    "Latitude": -31.892299,
    "Distance_to_CBD": 7379,
    "Year": 2018,
    "Primary_School_Name": "OSBORNE PRIMARY SCHOOL",
    "Secondary_School_Name": "SERVITE COLLEGE"
  },
  {
    "Listing_ID": 140582511,
    "Price": 1149000,
    "Suburb": "Booragoon",
    "Address": "45 Allerton Way",
    "Property_Type": "house",
    "Bedrooms": 3,
    "Bathrooms": 3,
    "Parking_Spaces": 2,
    "Land_Size": 737,
    "Longitude": 115.8343,
    "Latitude": -32.04168,
    "Distance_to_CBD": 10010,
    "Year": 2022,
    "Primary_School_Name": "BOORAGOON PRIMARY SCHOOL",
    "Secondary_School_Name": "APPLECROSS SENIOR HIGH SCHOOL"
  },
  {
    "Listing_ID": 144345936,
    "Price": 1170000,
    "Suburb": "Alfred Cove",
    "Address": "22 North Lake Road",
    "Property_Type": "house",
    "Bedrooms": 4,
    "Bathrooms": 2,
    "Parking_Spaces": 2,
    "Land_Size": 372,
    "Longitude": 115.815868,
    "Latitude": -32.03394328,
    "Distance_to_CBD": 9731,
    "Year": 2024,
    "Primary_School_Name": "MELVILLE PRIMARY SCHOOL",
    "Secondary_School_Name": "MELVILLE SENIOR HIGH SCHOOL"
  },
  {
    "Listing_ID": 140312279,
    "Price": 712000,
    "Suburb": "Woodvale",
    "Address": "63 Trappers Drive",
    "Property_Type": "house",
    "Bedrooms": 4,
    "Bathrooms": 2,
    "Parking_Spaces": 2,
    "Land_Size": 752,
    "Longitude": 115.78807,
    "Latitude": -31.79174,
    "Distance_to_CBD": 19089,
    "Year": 2022,
    "Primary_School_Name": "WOODVALE PRIMARY SCHOOL",
    "Secondary_School_Name": "WOODVALE SECONDARY COLLEGE"
  },
  {
    "Listing_ID": 139799675,
    "Price": 365000,
    "Suburb": "Mirrabooka",
    "Address": "21 Honeywell Boulevard",
    "Property_Type": "house",
    "Bedrooms": 2,
    "Bathrooms": 1,
    "Parking_Spaces": 2,
    "Land_Size": 684,
    "Longitude": 115.86817,
    "Latitude": -31.85049,
    "Distance_to_CBD": 11472,
    "Year": 2022,
    "Primary_School_Name": "WADDINGTON PRIMARY SCHOOL",
    "Secondary_School_Name": "MERCY COLLEGE"
  },
  {
    "Listing_ID": 137198458,
    "Price": 532000,
    "Suburb": "Beechboro",
    "Address": "55 King Road",
    "Property_Type": "house",
    "Bedrooms": 4,
    "Bathrooms": 2,
    "Parking_Spaces": 4,
    "Land_Size": 500,
    "Longitude": 115.9313973,
    "Latitude": -31.86814397,
    "Distance_to_CBD": 11792,
    "Year": 2021,
    "Primary_School_Name": "BEECHBORO PRIMARY SCHOOL",
    "Secondary_School_Name": "KIARA COLLEGE"
  },
  {
    "Listing_ID": 143339824,
    "Price": 780000,
    "Suburb": "Alexander Heights",
    "Address": "12 Feathertop Rise",
    "Property_Type": "house",
    "Bedrooms": 4,
    "Bathrooms": 2,
    "Parking_Spaces": 2,
    "Land_Size": 694,
    "Longitude": 115.86874,
    "Latitude": -31.82367,
    "Distance_to_CBD": 14440,
    "Year": 2023,
    "Primary_School_Name": "ALINJARRA PRIMARY SCHOOL",
    "Secondary_School_Name": "LANDSDALE CHRISTIAN SCHOOL"
  },
  {
    "Listing_ID": 139493311,
    "Price": 1000000,
    "Suburb": "North Perth",
    "Address": "7 Highlands Road",
    "Property_Type": "house",
    "Bedrooms": 3,
    "Bathrooms": 2,
    "Parking_Spaces": 2,
    "Land_Size": 363,
    "Longitude": 115.845,
    "Latitude": -31.91557,
    "Distance_to_CBD": 4359,
    "Year": 2022,
    "Primary_School_Name": "ST DENIS SCHOOL",
    "Secondary_School_Name": "ARANMORE CATHOLIC COLLEGE"
  },
  {
    "Listing_ID": 136199634,
    "Price": 858000,
    "Suburb": "Ascot",
    "Address": "21 The Boardwalk",
    "Property_Type": "house",
    "Bedrooms": 4,
    "Bathrooms": 2,
    "Parking_Spaces": 2,
    "Land_Size": 331,
    "Longitude": 115.91984,
    "Latitude": -31.93903,
    "Distance_to_CBD": 6150,
    "Year": 2021,
    "Primary_School_Name": "BELMONT PRIMARY SCHOOL",
    "Secondary_School_Name": "BELMONT CITY COLLEGE"
  },
  {
    "Listing_ID": 141181176,
    "Price": 990000,
    "Suburb": "Duncraig",
    "Address": "35 Poynter Drive",
    "Property_Type": "house",
    "Bedrooms": 5,
    "Bathrooms": 2,
    "Parking_Spaces": 3,
    "Land_Size": 892,
    "Longitude": 115.77544,
    "Latitude": -31.84295,
    "Distance_to_CBD": 14488,
    "Year": 2023,
    "Primary_School_Name": "POYNTER PRIMARY SCHOOL",
    "Secondary_School_Name": "CARINE SENIOR HIGH SCHOOL"
  },
  {
    "Listing_ID": 139839839,
    "Price": 500000,
    "Suburb": "Queens Park",
    "Address": "6 Barnsley Street",
    "Property_Type": "house",
    "Bedrooms": 4,
    "Bathrooms": 2,
    "Parking_Spaces": 3,
    "Land_Size": 290,
    "Longitude": 115.9456,
    "Latitude": -32.00074,
    "Distance_to_CBD": 9873,
    "Year": 2022,
    "Primary_School_Name": "QUEENS PARK PRIMARY SCHOOL",
    "Secondary_School_Name": "ST NORBERT COLLEGE"
  },
  {
    "Listing_ID": 140711159,
    "Price": 672000,
    "Suburb": "Mount Lawley",
    "Address": "3/2 Third Avenue",
    "Property_Type": "townhouse",
    "Bedrooms": 2,
    "Bathrooms": 1,
    "Parking_Spaces": 1,
    "Land_Size": 188,
    "Longitude": 115.8851381,
    "Latitude": -31.93195272,
    "Distance_to_CBD": 3573,
    "Year": 2022,
    "Primary_School_Name": "PERTH COLLEGE",
    "Secondary_School_Name": "PERTH COLLEGE"
  },
  {
    "Listing_ID": 137070382,
    "Price": 615000,
    "Suburb": "Darch",
    "Address": "24 Burnsall Way",
    "Property_Type": "house",
    "Bedrooms": 4,
    "Bathrooms": 2,
    "Parking_Spaces": 2,
    "Land_Size": 543,
    "Longitude": 115.83808,
    "Latitude": -31.81761,
    "Distance_to_CBD": 15176,
    "Year": 2022,
    "Primary_School_Name": "KINGSWAY CHRISTIAN COLLEGE",
    "Secondary_School_Name": "KINGSWAY CHRISTIAN COLLEGE"
  },
  {
    "Listing_ID": 140653671,
    "Price": 275000,
    "Suburb": "Midland",
    "Address": "8/6 Keane Street",
    "Property_Type": "unit",
    "Bedrooms": 2,
    "Bathrooms": 2,
    "Parking_Spaces": 1,
    "Land_Size": 122,
    "Longitude": 116.0061923,
    "Latitude": -31.88985206,
    "Distance_to_CBD": 15773,
    "Year": 2023,
    "Primary_School_Name": "HELENA RIVER STEINER SCHOOL",
    "Secondary_School_Name": "YOUTH FUTURES COMMUNITY SCHOOL"
  },
  {
    "Listing_ID": 138090038,
    "Price": 840000,
    "Suburb": "Willagee",
    "Address": "28 Antill Street",
    "Property_Type": "house",
    "Bedrooms": 4,
    "Bathrooms": 2,
    "Parking_Spaces": 2,
    "Land_Size": 563,
    "Longitude": 115.80437,
    "Latitude": -32.05552,
    "Distance_to_CBD": 12358,
    "Year": 2022,
    "Primary_School_Name": "CARALEE COMMUNITY SCHOOL",
    "Secondary_School_Name": "MELVILLE SENIOR HIGH SCHOOL"
  },
  {
    "Listing_ID": 120590517,
    "Price": 1500000,
    "Suburb": "Daglish",
    "Address": "29 Troy Terrace",
    "Property_Type": "house",
    "Bedrooms": 3,
    "Bathrooms": 1,
    "Parking_Spaces": 1,
    "Land_Size": 809,
    "Longitude": 115.810012,
    "Latitude": -31.951337,
    "Distance_to_CBD": 4453,
    "Year": 2021,
    "Primary_School_Name": "JOLIMONT PRIMARY SCHOOL",
    "Secondary_School_Name": "SHENTON COLLEGE"
  },
  {
    "Listing_ID": 145051000,
    "Price": 588999,
    "Suburb": "Huntingdale",
    "Address": "3 Firefalls Close",
    "Property_Type": "house",
    "Bedrooms": 4,
    "Bathrooms": 2,
    "Parking_Spaces": 2,
    "Land_Size": 512,
    "Longitude": 115.95852,
    "Latitude": -32.08009,
    "Distance_to_CBD": 16997,
    "Year": 2024,
    "Primary_School_Name": "FOREST CRESCENT PRIMARY SCHOOL",
    "Secondary_School_Name": "THORNLIE SENIOR HIGH SCHOOL"
  },
  {
    "Listing_ID": 137726790,
    "Price": 310000,
    "Suburb": "Embleton",
    "Address": "2/27 McGregor Street",
    "Property_Type": "house",
    "Bedrooms": 2,
    "Bathrooms": 1,
    "Parking_Spaces": 1,
    "Land_Size": 77,
    "Longitude": 115.9050123,
    "Latitude": -31.90523468,
    "Distance_to_CBD": 7016,
    "Year": 2022,
    "Primary_School_Name": "HILLCREST PRIMARY SCHOOL",
    "Secondary_School_Name": "JOHN FORREST SECONDARY COLLEGE"
  },
  {
    "Listing_ID": 141372704,
    "Price": 2100000,
    "Suburb": "City Beach",
    "Address": "10 Palana Road",
    "Property_Type": "house",
    "Bedrooms": 4,
    "Bathrooms": 3,
    "Parking_Spaces": 2,
    "Land_Size": 809,
    "Longitude": 115.76433,
    "Latitude": -31.93778,
    "Distance_to_CBD": 8938,
    "Year": 2023,
    "Primary_School_Name": "CITY BEACH PRIMARY SCHOOL",
    "Secondary_School_Name": "NEWMAN COLLEGE"
  },
  {
    "Listing_ID": 141850776,
    "Price": 420000,
    "Suburb": "Girrawheen",
    "Address": "21 Manolas Way",
    "Property_Type": "house",
    "Bedrooms": 3,
    "Bathrooms": 1,
    "Parking_Spaces": 1,
    "Land_Size": 703,
    "Longitude": 115.82589,
    "Latitude": -31.84121,
    "Distance_to_CBD": 12797,
    "Year": 2023,
    "Primary_School_Name": "EAST HAMERSLEY PRIMARY SCHOOL",
    "Secondary_School_Name": "WARWICK SENIOR HIGH SCHOOL"
  },
  {
    "Listing_ID": 143907268,
    "Price": 567500,
    "Suburb": "Langford",
    "Address": "10 Cortis Way",
    "Property_Type": "house",
    "Bedrooms": 3,
    "Bathrooms": 1,
    "Parking_Spaces": 2,
    "Land_Size": 709,
    "Longitude": 115.9482,
    "Latitude": -32.04111,
    "Distance_to_CBD": 12982,
    "Year": 2024,
    "Primary_School_Name": "YALE PRIMARY SCHOOL",
    "Secondary_School_Name": "LANGFORD ISLAMIC COLLEGE"
  },
  {
    "Listing_ID": 140543555,
    "Price": 515000,
    "Suburb": "Beechboro",
    "Address": "26 Brockmill Avenue",
    "Property_Type": "house",
    "Bedrooms": 3,
    "Bathrooms": 1,
    "Parking_Spaces": 5,
    "Land_Size": 921,
    "Longitude": 115.95031,
    "Latitude": -31.8739,
    "Distance_to_CBD": 12479,
    "Year": 2022,
    "Primary_School_Name": "EAST BEECHBORO PRIMARY SCHOOL",
    "Secondary_School_Name": "KIARA COLLEGE"
  },
  {
    "Listing_ID": 138465011,
    "Price": 865000,
    "Suburb": "Karrinyup",
    "Address": "13A Wincanton Road",
    "Property_Type": "house",
    "Bedrooms": 3,
    "Bathrooms": 2,
    "Parking_Spaces": 2,
    "Land_Size": 404,
    "Longitude": 115.77288,
    "Latitude": -31.87304,
    "Distance_to_CBD": 11958,
    "Year": 2022,
    "Primary_School_Name": "KARRINYUP PRIMARY SCHOOL",
    "Secondary_School_Name": "ST MARY'S ANGLICAN GIRLS' SCHOOL"
  },
  {
    "Listing_ID": 141031428,
    "Price": 1500050,
    "Suburb": "Coogee",
    "Address": "5 King Street",
    "Property_Type": "house",
    "Bedrooms": 3,
    "Bathrooms": 3,
    "Parking_Spaces": 2,
    "Land_Size": 380,
    "Longitude": 115.7678291,
    "Latitude": -32.11140496,
    "Distance_to_CBD": 19431,
    "Year": 2023,
    "Primary_School_Name": "COOGEE PRIMARY SCHOOL",
    "Secondary_School_Name": "FREMANTLE CHRISTIAN COLLEGE"
  },
  {
    "Listing_ID": 138295402,
    "Price": 800000,
    "Suburb": "Jandakot",
    "Address": "6 The Fairway",
    "Property_Type": "house",
    "Bedrooms": 4,
    "Bathrooms": 2,
    "Parking_Spaces": 2,
    "Land_Size": 560,
    "Longitude": 115.85434,
    "Latitude": -32.11066,
    "Distance_to_CBD": 17428,
    "Year": 2022,
    "Primary_School_Name": "SOUTH LAKE PRIMARY SCHOOL",
    "Secondary_School_Name": "LAKELAND SENIOR HIGH SCHOOL"
  },
  {
    "Listing_ID": 140433951,
    "Price": 513000,
    "Suburb": "Alexander Heights",
    "Address": "1 Redwood Court",
    "Property_Type": "house",
    "Bedrooms": 3,
    "Bathrooms": 1,
    "Parking_Spaces": 1,
    "Land_Size": 514,
    "Longitude": 115.85549,
    "Latitude": -31.82662,
    "Distance_to_CBD": 14071,
    "Year": 2022,
    "Primary_School_Name": "RAWLINSON PRIMARY SCHOOL",
    "Secondary_School_Name": "GIRRAWHEEN SENIOR HIGH SCHOOL"
  },
  {
    "Listing_ID": 143023208,
    "Price": 600000,
    "Suburb": "Bibra Lake",
    "Address": "7 Caphorn Close",
    "Property_Type": "house",
    "Bedrooms": 4,
    "Bathrooms": 2,
    "Parking_Spaces": 2,
    "Land_Size": 308,
    "Longitude": 115.82585,
    "Latitude": -32.10573,
    "Distance_to_CBD": 17134,
    "Year": 2023,
    "Primary_School_Name": "SOUTH LAKE PRIMARY SCHOOL",
    "Secondary_School_Name": "PERTH WALDORF SCHOOL"
  },
  {
    "Listing_ID": 143212156,
    "Price": 679000,
    "Suburb": "Thornlie",
    "Address": "17 Tahoe Close",
    "Property_Type": "house",
    "Bedrooms": 4,
    "Bathrooms": 2,
    "Parking_Spaces": 2,
    "Land_Size": 507,
    "Longitude": 115.94502,
    "Latitude": -32.06824,
    "Distance_to_CBD": 15196,
    "Year": 2023,
    "Primary_School_Name": "FOREST CRESCENT PRIMARY SCHOOL",
    "Secondary_School_Name": "THORNLIE SENIOR HIGH SCHOOL"
  },
  {
    "Listing_ID": 143556112,
    "Price": 681000,
    "Suburb": "Piara Waters",
    "Address": "15 Adenine Bend",
    "Property_Type": "house",
    "Bedrooms": 3,
    "Bathrooms": 2,
    "Parking_Spaces": 2,
    "Land_Size": 525,
    "Longitude": 115.9159074,
    "Latitude": -32.12023535,
    "Distance_to_CBD": 19305,
    "Year": 2023,
    "Primary_School_Name": "PIARA WATERS PRIMARY SCHOOL",
    "Secondary_School_Name": "HARRISDALE SENIOR HIGH SCHOOL"
  },
  {
    "Listing_ID": 140901344,
    "Price": 805000,
    "Suburb": "South Guildford",
    "Address": "23 The Embankment",
    "Property_Type": "house",
    "Bedrooms": 3,
    "Bathrooms": 2,
    "Parking_Spaces": 2,
    "Land_Size": 477,
    "Longitude": 115.9834206,
    "Latitude": -31.90337837,
    "Distance_to_CBD": 13180,
    "Year": 2023,
    "Primary_School_Name": "GUILDFORD GRAMMAR SCHOOL",
    "Secondary_School_Name": "GUILDFORD GRAMMAR SCHOOL"
  },
  {
    "Listing_ID": 145527780,
    "Price": 930000,
    "Suburb": "Kingsley",
    "Address": "14 Holborn Close",
    "Property_Type": "house",
    "Bedrooms": 3,
    "Bathrooms": 1,
    "Parking_Spaces": 1,
    "Land_Size": 686,
    "Longitude": 115.7912,
    "Latitude": -31.81175,
    "Distance_to_CBD": 16909,
    "Year": 2024,
    "Primary_School_Name": "DALMAIN PRIMARY SCHOOL",
    "Secondary_School_Name": "ST STEPHEN'S SCHOOL"
  },
  {
    "Listing_ID": 140511103,
    "Price": 520000,
    "Suburb": "Ferndale",
    "Address": "7 Brooklea Place",
    "Property_Type": "house",
    "Bedrooms": 3,
    "Bathrooms": 1,
    "Parking_Spaces": 2,
    "Land_Size": 835,
    "Longitude": 115.93416,
    "Latitude": -32.0306,
    "Distance_to_CBD": 11233,
    "Year": 2022,
    "Primary_School_Name": "BROOKMAN PRIMARY SCHOOL",
    "Secondary_School_Name": "FOUNTAIN COLLEGE"
  },
  {
    "Listing_ID": 134248942,
    "Price": 1255000,
    "Suburb": "West Leederville",
    "Address": "68 Woolwich Street",
    "Property_Type": "house",
    "Bedrooms": 3,
    "Bathrooms": 1,
    "Parking_Spaces": 1,
    "Land_Size": 361,
    "Longitude": 115.836446,
    "Latitude": -31.938467,
    "Distance_to_CBD": 2565,
    "Year": 2020,
    "Primary_School_Name": "WEST LEEDERVILLE PRIMARY SCHOOL",
    "Secondary_School_Name": "SCHOOL OF ISOLATED AND DISTANCE EDUCATION"
  },
  {
    "Listing_ID": 138803115,
    "Price": 480000,
    "Suburb": "Greenmount",
    "Address": "129 Innamincka Road",
    "Property_Type": "house",
    "Bedrooms": 4,
    "Bathrooms": 2,
    "Parking_Spaces": 2,
    "Land_Size": 901,
    "Longitude": 116.04088,
    "Latitude": -31.89506,
    "Distance_to_CBD": 18554,
    "Year": 2022,
    "Primary_School_Name": "ST ANTHONY'S SCHOOL",
    "Secondary_School_Name": "SWAN VIEW SENIOR HIGH SCHOOL"
  },
  {
    "Listing_ID": 143935392,
    "Price": 750000,
    "Suburb": "Maddington",
    "Address": "4 Pintaudi Way",
    "Property_Type": "house",
    "Bedrooms": 4,
    "Bathrooms": 3,
    "Parking_Spaces": 4,
    "Land_Size": 565,
    "Longitude": 116.0030895,
    "Latitude": -32.04773116,
    "Distance_to_CBD": 17309,
    "Year": 2024,
    "Primary_School_Name": "EAST MADDINGTON PRIMARY SCHOOL",
    "Secondary_School_Name": "YULE BROOK COLLEGE"
  },
  {
    "Listing_ID": 143707140,
    "Price": 766000,
    "Suburb": "Padbury",
    "Address": "4 Lowes Way",
    "Property_Type": "house",
    "Bedrooms": 3,
    "Bathrooms": 1,
    "Parking_Spaces": 2,
    "Land_Size": 693,
    "Longitude": 115.77151,
    "Latitude": -31.80295,
    "Distance_to_CBD": 18553,
    "Year": 2024,
    "Primary_School_Name": "BAMBARA PRIMARY SCHOOL",
    "Secondary_School_Name": "ST STEPHEN'S SCHOOL"
  },
  {
    "Listing_ID": 137430886,
    "Price": 505000,
    "Suburb": "Dayton",
    "Address": "79 Aurum Parade",
    "Property_Type": "house",
    "Bedrooms": 4,
    "Bathrooms": 2,
    "Parking_Spaces": 2,
    "Land_Size": 301,
    "Longitude": 115.9694684,
    "Latitude": -31.84972408,
    "Distance_to_CBD": 15670,
    "Year": 2021,
    "Primary_School_Name": "RIVERLANDS MONTESSORI SCHOOL",
    "Secondary_School_Name": "SWAN CHRISTIAN COLLEGE"
  },
  {
    "Listing_ID": 144908016,
    "Price": 2015000,
    "Suburb": "Shenton Park",
    "Address": "127 Herbert Road",
    "Property_Type": "house",
    "Bedrooms": 3,
    "Bathrooms": 2,
    "Parking_Spaces": 1,
    "Land_Size": 325,
    "Longitude": 115.8101,
    "Latitude": -31.96274,
    "Distance_to_CBD": 4555,
    "Year": 2024,
    "Primary_School_Name": "ROSALIE PRIMARY SCHOOL",
    "Secondary_School_Name": "SHENTON COLLEGE"
  },
  {
    "Listing_ID": 142453172,
    "Price": 430000,
    "Suburb": "Westminster",
    "Address": "33C Shelbred Way",
    "Property_Type": "house",
    "Bedrooms": 3,
    "Bathrooms": 2,
    "Parking_Spaces": 2,
    "Land_Size": 207,
    "Longitude": 115.8326313,
    "Latitude": -31.86620592,
    "Distance_to_CBD": 9953,
    "Year": 2023,
    "Primary_School_Name": "TAKARI PRIMARY SCHOOL",
    "Secondary_School_Name": "BALGA SENIOR HIGH SCHOOL"
  },
  {
    "Listing_ID": 138490083,
    "Price": 665000,
    "Suburb": "Hamersley",
    "Address": "236 Erindale Road",
    "Property_Type": "house",
    "Bedrooms": 4,
    "Bathrooms": 2,
    "Parking_Spaces": 2,
    "Land_Size": 400,
    "Longitude": 115.8134592,
    "Latitude": -31.84835545,
    "Distance_to_CBD": 12368,
    "Year": 2022,
    "Primary_School_Name": "EAST HAMERSLEY PRIMARY SCHOOL",
    "Secondary_School_Name": "WARWICK SENIOR HIGH SCHOOL"
  },
  {
    "Listing_ID": 127140210,
    "Price": 570000,
    "Suburb": "Bibra Lake",
    "Address": "10 Brookley Mews",
    "Property_Type": "house",
    "Bedrooms": 4,
    "Bathrooms": 2,
    "Parking_Spaces": 2,
    "Land_Size": 839,
    "Longitude": 115.805959,
    "Latitude": -32.091634,
    "Distance_to_CBD": 16058,
    "Year": 2021,
    "Primary_School_Name": "COOLBELLUP COMMUNITY SCHOOL",
    "Secondary_School_Name": "PERTH WALDORF SCHOOL"
  },
  {
    "Listing_ID": 138502423,
    "Price": 385000,
    "Suburb": "Koondoola",
    "Address": "34 Edgington Crescent",
    "Property_Type": "house",
    "Bedrooms": 4,
    "Bathrooms": 1,
    "Parking_Spaces": 2,
    "Land_Size": 791,
    "Longitude": 115.8581,
    "Latitude": -31.83927,
    "Distance_to_CBD": 12668,
    "Year": 2022,
    "Primary_School_Name": "KOONDOOLA PRIMARY SCHOOL",
    "Secondary_School_Name": "MERCY COLLEGE"
  },
  {
    "Listing_ID": 138912007,
    "Price": 1250000,
    "Suburb": "Crawley",
    "Address": "37 Parkway",
    "Property_Type": "house",
    "Bedrooms": 2,
    "Bathrooms": 2,
    "Parking_Spaces": 2,
    "Land_Size": 272,
    "Longitude": 115.817915,
    "Latitude": -31.985998,
    "Distance_to_CBD": 5163,
    "Year": 2022,
    "Primary_School_Name": "NEDLANDS PRIMARY SCHOOL",
    "Secondary_School_Name": "SHENTON COLLEGE"
  },
  {
    "Listing_ID": 141825696,
    "Price": 580000,
    "Suburb": "Atwell",
    "Address": "22 Lipton Mews",
    "Property_Type": "house",
    "Bedrooms": 3,
    "Bathrooms": 2,
    "Parking_Spaces": 2,
    "Land_Size": 456,
    "Longitude": 115.86714,
    "Latitude": -32.13231,
    "Distance_to_CBD": 19849,
    "Year": 2023,
    "Primary_School_Name": "ATWELL PRIMARY SCHOOL",
    "Secondary_School_Name": "ATWELL COLLEGE"
  },
  {
    "Listing_ID": 142924120,
    "Price": 850000,
    "Suburb": "Swanbourne",
    "Address": "85/2 Milyarm Rise",
    "Property_Type": "apartment",
    "Bedrooms": 2,
    "Bathrooms": 2,
    "Parking_Spaces": 2,
    "Land_Size": 84,
    "Longitude": 115.7700881,
    "Latitude": -31.97131376,
    "Distance_to_CBD": 8454,
    "Year": 2023,
    "Primary_School_Name": "SWANBOURNE PRIMARY SCHOOL",
    "Secondary_School_Name": "SCOTCH COLLEGE"
  },
  {
    "Listing_ID": 137121290,
    "Price": 3100000,
    "Suburb": "Dalkeith",
    "Address": "7 Joyce Street",
    "Property_Type": "house",
    "Bedrooms": 5,
    "Bathrooms": 2,
    "Parking_Spaces": 2,
    "Land_Size": 809,
    "Longitude": 115.80244,
    "Latitude": -31.99355,
    "Distance_to_CBD": 6808,
    "Year": 2021,
    "Primary_School_Name": "DALKEITH PRIMARY SCHOOL",
    "Secondary_School_Name": "SANTA MARIA COLLEGE"
  },
  {
    "Listing_ID": 130042254,
    "Price": 458650,
    "Suburb": "Midvale",
    "Address": "290 Marsland Road",
    "Property_Type": "house",
    "Bedrooms": 4,
    "Bathrooms": 2,
    "Parking_Spaces": 2,
    "Land_Size": 375,
    "Longitude": 116.02899,
    "Latitude": -31.876992,
    "Distance_to_CBD": 18343,
    "Year": 2019,
    "Primary_School_Name": "MOORDITJ NOONGAR COMMUNITY COLLEGE",
    "Secondary_School_Name": "SWAN VIEW SENIOR HIGH SCHOOL"
  },
  {
    "Listing_ID": 137980698,
    "Price": 695000,
    "Suburb": "Lesmurdie",
    "Address": "14 Anthony Street",
    "Property_Type": "house",
    "Bedrooms": 4,
    "Bathrooms": 2,
    "Parking_Spaces": 1,
    "Land_Size": 1096,
    "Longitude": 116.06069,
    "Latitude": -31.99523,
    "Distance_to_CBD": 19796,
    "Year": 2021,
    "Primary_School_Name": "ST BRIGID'S COLLEGE",
    "Secondary_School_Name": "ST BRIGID'S COLLEGE"
  },
  {
    "Listing_ID": 140216463,
    "Price": 355000,
    "Suburb": "Redcliffe",
    "Address": "8/101 Epsom Avenue",
    "Property_Type": "villa",
    "Bedrooms": 3,
    "Bathrooms": 1,
    "Parking_Spaces": 1,
    "Land_Size": 232,
    "Longitude": 115.9371684,
    "Latitude": -31.93973337,
    "Distance_to_CBD": 7728,
    "Year": 2022,
    "Primary_School_Name": "ST MARIA GORETTI'S CATHOLIC SCHOOL",
    "Secondary_School_Name": "BELMONT CITY COLLEGE"
  },
  {
    "Listing_ID": 137883550,
    "Price": 335000,
    "Suburb": "Inglewood",
    "Address": "8/2 Walter Road West",
    "Property_Type": "apartment",
    "Bedrooms": 2,
    "Bathrooms": 1,
    "Parking_Spaces": 1,
    "Land_Size": 76,
    "Longitude": 115.8773704,
    "Latitude": -31.91364383,
    "Distance_to_CBD": 4820,
    "Year": 2022,
    "Primary_School_Name": "ST PETER'S PRIMARY SCHOOL",
    "Secondary_School_Name": "MOUNT LAWLEY SENIOR HIGH SCHOOL"
  },
  {
    "Listing_ID": 144642388,
    "Price": 732000,
    "Suburb": "Marangaroo",
    "Address": "74 Highclere Boulevard",
    "Property_Type": "house",
    "Bedrooms": 4,
    "Bathrooms": 1,
    "Parking_Spaces": 2,
    "Land_Size": 688,
    "Longitude": 115.84137,
    "Latitude": -31.8284,
    "Distance_to_CBD": 13952,
    "Year": 2024,
    "Primary_School_Name": "RAWLINSON PRIMARY SCHOOL",
    "Secondary_School_Name": "GIRRAWHEEN SENIOR HIGH SCHOOL"
  },
  {
    "Listing_ID": 136145842,
    "Price": 400000,
    "Suburb": "Middle Swan",
    "Address": "5 Carlisle Court",
    "Property_Type": "house",
    "Bedrooms": 4,
    "Bathrooms": 2,
    "Parking_Spaces": 2,
    "Land_Size": 397,
    "Longitude": 116.0129546,
    "Latitude": -31.87680495,
    "Distance_to_CBD": 17023,
    "Year": 2021,
    "Primary_School_Name": "ST BRIGID'S PRIMARY SCHOOL",
    "Secondary_School_Name": "LA SALLE COLLEGE"
  },